주소,건물명_x,lat,lng
서울특별시 강서구 화곡동 1159,"우장산아이파크,이편한세상",37.5482625768732,126.840980606494
서울특별시 서대문구 대현동 144,럭키대현,37.5594539604684,126.946519557644
서울특별시 동작구 사당동 169-32,현대,37.4876132952185,126.970501034253
서울특별시 은평구 역촌동 43-4,하늘애,37.6004819441485,126.918434729942
서울특별시 도봉구 방학동 734,청구아파트,37.6568375682064,127.027578143923
서울특별시 영등포구 대림동 762-1,우성1,37.4955657383468,126.9005921977
서울특별시 관악구 봉천동 1698-1,보라매삼성,37.4948015028766,126.927602560192
서울특별시 구로구 구로동 107-4,비즈트위트 블루,37.4986733341879,126.891116202603
서울특별시 금천구 시흥동 1013,관악산벽산타운5,37.4497786332027,126.920020808062
서울특별시 서초구 방배동 763-12,푸른마을,37.4955836848859,126.984012896345
서울특별시 종로구 숭인동 181-121,도시그린빌라,37.5765334601309,127.020071632824
서울특별시 노원구 상계동 730-2,상계주공3(고층),37.6521705404342,127.060659844757
서울특별시 영등포구 신길동 4942,여의도리버뷰,37.5162316852714,126.921199739783
서울특별시 서초구 신원동 619,서초포레스타6단지,37.4496826596411,127.056241443278
서울특별시 송파구 잠실동 101-1,우성아파트,37.5071938064643,127.074204083657
서울특별시 도봉구 방학동 508,우성아파트2,37.6572641441672,127.022686737213
서울특별시 노원구 상계동 624,상계주공16(고층),37.6701880464645,127.054677638301
서울특별시 중랑구 신내동 795,새한,37.6049332871517,127.10122617607
서울특별시 성북구 돈암동 524,일신건영휴먼빌아파트,37.6007699096006,127.013617460956
서울특별시 송파구 신천동 7,장미1,37.5198173607856,127.099297662181
서울특별시 강동구 길동 415-16,청광플러스원큐브3차,37.5363674526244,127.136442751206
서울특별시 성북구 성북동1가 35-22,휴아름 스튜디오,37.5884578893911,127.005414226009
서울특별시 은평구 대조동 4-6,정익제이원,37.6117678551251,126.928177031177
서울특별시 마포구 창전동 443,해모로,37.5464775981715,126.928907135922
서울특별시 강남구 역삼동 709-5,테헤란아이파크,37.5025006142352,127.046384009751
서울특별시 마포구 합정동 468,두영이지안,37.5500293755493,126.906475564279
서울특별시 도봉구 창동 38,주공17단지,37.6437121231525,127.053952436142
서울특별시 용산구 문배동 24-4,용산큐브,37.5371597784296,126.968380751407
서울특별시 은평구 신사동 155-1,신성,37.5901940359917,126.905696946665
서울특별시 구로구 구로동 771-2,(771-2),37.4876218458319,126.888116078444
서울특별시 강동구 천호동 22-9,고려아파트(D동),37.5500632834796,127.140953352678
서울특별시 동대문구 장안동 384-1,공감대6차(384-1),37.5710534170736,127.06950304778
서울특별시 서초구 방배동 998,방배어울림,37.4781929040213,127.003860322761
서울특별시 강남구 수서동 559,강남데시앙포레,127.0912276,37.4809628
서울특별시 강동구 천호동 44,금호아파트,37.544847168923,127.142351999447
서울특별시 양천구 목동 643-7,동원,37.5447874871587,126.863961830686
서울특별시 은평구 불광동 645,불광롯데캐슬,37.6131320544168,126.932470564865
서울특별시 성북구 종암동 80,삼성래미안,37.6014922606804,127.031080353416
서울특별시 도봉구 방학동 444-31,대원그린아파트,37.6628661536364,127.02784592087
서울특별시 도봉구 쌍문동 54,현대1,37.6586683068739,127.030724177917
서울특별시 구로구 구로동 104-3,해담채3,37.4969605265217,126.891023698083
서울특별시 양천구 신정동 884-6,재훈,37.5276350902992,126.859522491423
서울특별시 은평구 대조동 9-14,주주베에이,37.6107131470046,126.928456431246
서울특별시 노원구 상계동 1265,수락산벨리체,37.6816324769124,127.055611773971
서울특별시 용산구 원효로1가 41,용산 더프라임,37.5403958008247,126.969718522289
서울특별시 강남구 논현동 275,동부센트레빌,37.5104798359114,127.037183296518
서울특별시 광진구 구의동 620-6,광남캐스빌,37.5459816589244,127.085661843216
서울특별시 영등포구 영등포동1가 144,헤렌어반,37.5172464470937,126.913546062257
서울특별시 영등포구 당산동4가 98,브라운스톤 당산,37.5278538150557,126.901630452178
서울특별시 금천구 독산동 1144,독산동한양수자인,37.4760196038189,126.899811569821
서울특별시 강동구 천호동 467-11,현진리버파크,37.5421794961691,127.120842044121
서울특별시 영등포구 신길동 769-1,한성,37.5048413546279,126.919573843923
서울특별시 강북구 수유동 734,북한산네이처파크,37.6462353681514,127.009764119306
서울특별시 도봉구 창동 825,북한산아이파크5차,37.6565711376964,127.042729027408
서울특별시 중구 충무로5가 36-2,충무로엘크루메크로시티2,37.5633945987251,126.999994227546
서울특별시 강서구 화곡동 926-4,지석,37.5287920174868,126.842216746437
서울특별시 강서구 등촌동 632-2,태영,37.5557917334096,126.864431871621
서울특별시 구로구 구로동 46-4,하나세인스톤3차,37.5005615281738,126.891951687001
서울특별시 중구 황학동 2545,롯데캐슬,37.5708105464699,127.021463886656
서울특별시 동대문구 회기동 60-230,동일스카이시티2차,37.5909710418793,127.048197843267
서울특별시 강서구 방화동 857,마곡삼성아파트,126.8221059,37.5717799
서울특별시 영등포구 대림동 717,쌍용플래티넘S,37.4953006652838,126.898058257377
서울특별시 중구 회현동1가 208,남산 롯데캐슬 아이리스,37.5582247092319,126.981744459746
서울특별시 금천구 시흥동 384-12,남서울건영2,37.4496340433581,126.910501928991
서울특별시 강남구 개포동 1164-30,뉴현대파크빌,37.4748147158631,127.05480461731
서울특별시 중랑구 묵동 381,신안1,37.6123786241686,127.080628240495
서울특별시 성동구 옥수동 557,극동옥정,37.5405229507013,127.013748613882
서울특별시 동대문구 이문동 254-40,주성아우라,37.6042880959431,127.061825100897
서울특별시 구로구 오류동 235-2,대산,37.4895079892942,126.832917689118
서울특별시 마포구 연남동 573,코오롱,37.5627107408645,126.921856968358
서울특별시 성북구 삼선동3가 21-4,유니아테라스,37.5877433026298,127.01343302608
서울특별시 도봉구 도봉동 641,서원,37.6752145916118,127.048764988623
서울특별시 은평구 진관동 14,은평뉴타운상림마을(롯데캐슬A-2),37.644469386862,126.925073996113
서울특별시 영등포구 당산동 121-200,휴브리지빌딩,37.5285194959594,126.908261412358
서울특별시 노원구 공릉동 683-14,한일휴니스빌,37.6174995624988,127.074329424265
서울특별시 은평구 신사동 369,굿모닝기룡(369-0),37.5936560817341,126.907270001394
서울특별시 구로구 구로동 314,극동,37.4912427177954,126.889449615
서울특별시 노원구 중계동 364,신안동진,37.6495870762085,127.078912843722
서울특별시 영등포구 당산동3가 566,당산계룡리슈빌2단지,37.524382751721,126.898700398659
서울특별시 양천구 신월동 350-2,신안파크,37.5239737188018,126.829250021639
서울특별시 종로구 숭인동 766,종로청계힐스테이트,37.5757847596495,127.020959405051
서울특별시 금천구 독산동 711-2,금천현대,37.4629100391456,126.890423305457
서울특별시 구로구 신도림동 645,동아3,37.5093892062559,126.884700212286
서울특별시 강서구 염창동 249-11,현대2,37.5511042601915,126.873073850985
서울특별시 서초구 잠원동 49-17,신반포18(49-17),37.5200252128472,127.013347348926
서울특별시 강남구 도곡동 467-10,우성리빙텔,37.4884226678469,127.052589523324
서울특별시 성북구 종암동 127,선경(127),37.5998859630154,127.037051090224
서울특별시 종로구 창신동 601-5,MID그린(4동),37.5777618058647,127.010014641767
서울특별시 강남구 논현동 196-4,논현프라임아파트,37.5065882204399,127.028404953937
서울특별시 마포구 신공덕동 5-5,뉴마인,37.5476798074694,126.95735798884
서울특별시 성북구 정릉동 406,정릉푸르지오,37.60675665644,127.009694516589
서울특별시 금천구 시흥동 1010,벽산,37.4522125872144,126.918245309403
서울특별시 은평구 역촌동 50-24,디딤빌아파트,37.606739535111,126.910882663187
서울특별시 성북구 돈암동 633,동부센트레빌,37.6024665476727,127.025639698074
서울특별시 노원구 상계동 691,상계주공7(고층),37.6599302425054,127.0620578719
서울특별시 송파구 문정동 1,문정래미안,37.4892043157404,127.130231968818
서울특별시 금천구 시흥동 1002-1,럭키남서울아파트,37.4506553147109,126.898955300111
서울특별시 은평구 구산동 159-10,브라운스톤구산,37.6119050040364,126.908887561499
서울특별시 강서구 염창동 275-5,등마루,126.8680575,37.5498929
서울특별시 동작구 노량진동 57-1,메가스터디타워,37.512756878817,126.941700638806
서울특별시 마포구 상암동 1655,상암월드컵파크4단지,37.5779528826091,126.889887582062
서울특별시 강남구 압구정동 369-1,"현대1차(12,13,21,22,31,32,33동)",37.5336032834133,127.028325815765
서울특별시 금천구 가산동 140-36,비즈트위트바이올렛5차,37.4781685545737,126.889839590415
서울특별시 성동구 금호동4가 800,대우,37.5466437145234,127.019481520634
서울특별시 중랑구 면목동 1535,현대휴온,37.5922400860881,127.078706865845
서울특별시 마포구 성산동 255-11,유안,37.5598885063938,126.909086076591
서울특별시 성동구 성수동2가 712,청구강변1,37.535250573518,127.054546043422
서울특별시 강남구 대치동 316,은마,37.4996157705058,127.065915414443
서울특별시 구로구 구로동 23,우성(23),37.504269711314,126.888945906153
서울특별시 영등포구 당산동6가 336-4,유탑유블레스,37.5356775196102,126.90135824933
서울특별시 도봉구 방학동 271-1,신동아아파트1,37.6612170251846,127.026150172257
서울특별시 종로구 연건동 195-10,이화에수풀,37.5754639597614,127.0018417101
서울특별시 강남구 삼성동 144-14,채널리저브,37.5079854660981,127.055223583203
서울특별시 강서구 가양동 448,강나루2현대,37.5612173066572,126.855651002503
서울특별시 구로구 오류동 150-42,길훈,37.4903358086213,126.843831873041
서울특별시 노원구 중계동 505,경남,37.6391399283859,127.06381950095
서울특별시 구로구 신도림동 290,미성,37.5062634637578,126.876348360484
서울특별시 노원구 상계동 647,상계주공12(고층),37.6669329820293,127.059164856551
서울특별시 노원구 상계동 652,상계주공11(고층),37.6668967573625,127.056039185663
서울특별시 동작구 상도동 407,현대(관악),37.4926684929192,126.958262815168
서울특별시 금천구 시흥동 209,현대(209),37.4540494899025,126.910662468935
서울특별시 은평구 불광동 248,라이프미성,37.6158621924384,126.928432696242
서울특별시 광진구 화양동 110-37,화양타워,37.5470142780625,127.071167720264
서울특별시 성동구 성수동1가 656-421,신장미,37.5429669900718,127.046134329304
서울특별시 노원구 공릉동 707,시영2단지(라이프)아파트,37.6303911083845,127.067036390357
서울특별시 구로구 신도림동 695,신도림 아르디에,37.5072696872106,126.887602012587
서울특별시 강북구 번동 410,수유역두산위브1,37.6356409689103,127.032077291344
서울특별시 관악구 신림동 1734,신림동부센트레빌,37.4729529742383,126.916061909122
서울특별시 마포구 신공덕동 171,kcc웰츠,37.5428481347733,126.952468627776
서울특별시 강서구 가양동 1485,가양6단지,37.5637580924465,126.85928943925
서울특별시 용산구 후암동 302,신주에지앙,37.5494241481195,126.980226131461
서울특별시 노원구 상계동 451,한신2차,37.6643661175181,127.067342798979
서울특별시 성북구 안암동3가 136-1,대광,37.5822774263709,127.024621772028
서울특별시 도봉구 창동 811,대동,37.6618510309108,127.044061582784
서울특별시 강북구 미아동 160-3,푸르지오시티,37.6342034297487,127.023773791961
서울특별시 노원구 상계동 1304,대망드림힐1,37.6760024569375,127.058194246873
서울특별시 강서구 화곡동 916-2,위하우스아파트,37.5297272258541,126.843412417006
서울특별시 은평구 응암동 88-8,응암아네스트,37.6005519701322,126.921519128693
서울특별시 강서구 마곡동 429,벽산,37.575642531739,126.836854083656
서울특별시 성북구 돈암동 636,이수브라운스톤돈암,37.5973870636459,127.019322962491
서울특별시 영등포구 영등포동8가 45-8,리안펠리체,37.5264634557176,126.90602724648
서울특별시 노원구 상계동 720,상계주공6(고층),37.6547035620655,127.066190974274
서울특별시 은평구 불광동 71-16,북한산대창센시티,37.6257025429828,126.929389312581
서울특별시 중랑구 신내동 657,신내9진흥,37.6108674372868,127.095651882252
서울특별시 중랑구 망우동 580-1,금호어울림(580-1),37.6027743133849,127.108648043621
서울특별시 동대문구 이문동 64,쌍용,37.6007507501532,127.068769452719
서울특별시 중랑구 신내동 650,신내6대주,37.6161503233743,127.091639657907
서울특별시 강동구 성내동 194,에스케이허브진,37.5352477607977,127.132663780085
서울특별시 강동구 명일동 335-7,해밀,37.5479981926001,127.144017738609
서울특별시 동작구 동작동 333,이수힐스테이트,37.4946359814369,126.981965983395
서울특별시 서대문구 홍제동 463,문화촌현대,37.5914267755131,126.949460877903
서울특별시 관악구 봉천동 869-6,서울대역마에스트로,37.4810791516623,126.950689194498
서울특별시 성북구 종암동 33-45,중앙드림빌,37.5930506347398,127.033597914424
서울특별시 동작구 상도동 431,래미안상도3차,37.5008627565642,126.954053195079
서울특별시 용산구 이태원동 728,주공1,37.5431278955359,126.98951451659
서울특별시 노원구 중계동 584-1,삼창타워주상프라자,37.6591119674807,127.073074956682
서울특별시 노원구 월계동 320-11,사슴3,37.6323964230017,127.059849039082
서울특별시 관악구 신림동 1639-51,푸리마타운,37.4833434025177,126.927477487881
서울특별시 은평구 불광동 641,북한산현대힐스테이트3차아파트,37.6182703657052,126.93418080291
서울특별시 영등포구 신길동 4950,래미안에스티움,37.5004196071802,126.911544544308
서울특별시 중랑구 신내동 654,진로,37.6151331460647,127.093770032768
서울특별시 노원구 월계동 13,삼호3,37.6238343591525,127.064778103315
서울특별시 구로구 고척동 296,대우,37.5034122853622,126.855220189635
서울특별시 마포구 상수동 398,래미안밤섬리베뉴 Ⅱ,37.5468678155672,126.926979191702
서울특별시 구로구 구로동 98,대림오페라타워,37.4951317858045,126.889409618774
서울특별시 서대문구 홍은동 456,두산,37.578896435345,126.931492692669
서울특별시 은평구 불광동 643,북한산 힐스테이트7차,37.616343199117,126.925757582129
서울특별시 노원구 상계동 626,상계주공14(고층),37.6698696701205,127.058738056584
서울특별시 금천구 가산동 769,두산,37.4761567725398,126.891289403751
서울특별시 광진구 광장동 570,상록타워아파트,37.5423063852949,127.101477509191
서울특별시 성북구 정릉동 1017,쌍용2,37.5993028279423,127.018273272468
서울특별시 양천구 신정동 976-3,성재세인트,37.5218335843113,126.855084035986
서울특별시 영등포구 대림동 687-1,성락,37.4996506745815,126.899262283735
서울특별시 도봉구 쌍문동 725,쌍문동삼성래미안,37.6468785281218,127.02881783318
서울특별시 노원구 공릉동 715,시영3차(라이프)아파트,37.628054057801,127.068573811877
서울특별시 송파구 마천동 21,송파건원여미지아파트,37.4999101173808,127.145627777884
서울특별시 마포구 망원동 465-32,광남캐스빌D,37.5609059225279,126.900282596132
서울특별시 강동구 둔촌동 90,청원파크빌,37.5317482684587,127.143385501176
서울특별시 금천구 독산동 1147,금천롯데캐슬 골드파크1차,37.4600596360114,126.893020585165
서울특별시 강서구 화곡동 1161,강서동도센트리움,37.5547233988145,126.852896809104
서울특별시 성북구 정릉동 239,정릉풍림아이원,37.616442424527,127.009121176859
서울특별시 구로구 오류동 341,한신플러스타운,37.4985684053782,126.840470737116
서울특별시 서대문구 천연동 145,천연뜨란채,37.5687909291458,126.958474382973
서울특별시 노원구 하계동 284,한신1,37.6363018106198,127.068350833898
서울특별시 도봉구 창동 815,창동2차현대,37.6612344756964,127.047127236353
서울특별시 강남구 논현동 261-8,현대넥서스 A동,37.5115859459644,127.036777112119
서울특별시 동대문구 장안동 382-14,성진위드빌,37.5698494679416,127.06864640026
서울특별시 동대문구 제기동 1213,어진재,37.5910088520518,127.037909706614
서울특별시 중랑구 묵동 13,신내,37.6160040943693,127.085516143782
서울특별시 강서구 염창동 254-2,이너스내안에,37.5506882790568,126.876481195282
서울특별시 관악구 봉천동 867-12,프라비다2,37.4796436603018,126.950464811358
서울특별시 동대문구 전농동 10,전농SK,37.5766590358858,127.061567688813
서울특별시 중랑구 묵동 245-64,우성,37.6067737700947,127.077369280232
서울특별시 노원구 상계동 1256,은빛2단지,37.6806663867465,127.053801434371
서울특별시 강동구 길동 457,청광플러스원큐브2차,37.5351085214737,127.13695638748
서울특별시 강남구 논현동 212-13,논현동월드메르디앙,37.5135247001319,127.034165335085
서울특별시 송파구 신천동 17-6,미성,37.5161588169493,127.106659247528
서울특별시 성동구 금호동1가 633,벽산,37.5545314695033,127.026186636459
서울특별시 강남구 삼성동 82-6,다우림하우스,37.5189527136139,127.061682456339
서울특별시 관악구 신림동 1714,삼성산주공(주공3단지),37.4613714617228,126.925454992929
서울특별시 양천구 신정동 329,목동신시가지14,37.5149990018814,126.871236888208
서울특별시 구로구 구로동 780-15,미성빌라트,37.4871489089164,126.889265803046
서울특별시 마포구 서교동 490,메세나폴리스,37.5515008030203,126.91395024016
서울특별시 동대문구 이문동 327-4,민족통일 MJ캠퍼스 외대2차,37.5951408056128,127.059689536381
서울특별시 은평구 구산동 355-90,벽산스카이파크,37.6141616688391,126.904951550303
서울특별시 구로구 고척동 57-9,산업인,37.5049748037089,126.866778856297
서울특별시 중구 황학동 787,한양I-Class,37.5671044946189,127.023295498547
서울특별시 서대문구 홍은동 186-1,홍은미성,37.5931079822992,126.934684199248
서울특별시 은평구 신사동 358,신성수정,37.5925615004272,126.906172127572
서울특별시 노원구 공릉동 81,태강아파트,37.6231608344831,127.081287369487
서울특별시 동작구 대방동 515,아데나339,37.5127039490229,126.928954792246
서울특별시 도봉구 창동 30,창동주공18단지,37.6473809825376,127.052637263268
서울특별시 도봉구 쌍문동 722,염광,37.6484989879998,127.026329281809
서울특별시 강동구 천호동 26-12,평대보민아파트,37.5489132759804,127.142582550526
서울특별시 성동구 하왕십리동 1066,텐즈힐아파트(1단지),37.5691641596929,127.02634785313
서울특별시 강동구 천호동 565,천호현대아이파크,37.5359422069464,127.133662259698
서울특별시 노원구 상계동 1275,청암1단지,37.6659561373976,127.080079674155
서울특별시 구로구 구로동 110,종인아네스트,37.5018943273646,126.888495471446
서울특별시 강남구 청담동 134-15,청담삼익아파트,37.5233191738916,127.059176603682
서울특별시 은평구 신사동 365,신사동한신휴플러스,37.5987361682017,126.906165846343
서울특별시 도봉구 쌍문동 143-52,영진,37.6505560068906,127.033498361453
서울특별시 은평구 진관동 6,은평뉴타운상림마을(현대아이파크B-4),37.646668707628,126.928443600221
서울특별시 노원구 공릉동 395-7,진명비베레,37.6253891901965,127.073688076095
서울특별시 노원구 상계동 173-1,벽산,37.6623030184626,127.073581746977
서울특별시 강서구 공항동 1374,공항동부센트레빌,37.5611118589711,126.808165329292
서울특별시 관악구 신림동 1735,관악산휴먼시아 2단지,37.4597417150822,126.920752798392
서울특별시 도봉구 창동 45,삼성래미안,37.6503916138943,127.047330927246
서울특별시 성동구 금호동2가 1217,래미안하이리버,37.5523702207152,127.024628226229
서울특별시 구로구 구로동 792-78,(792-78),37.4864768457786,126.888497811547
서울특별시 도봉구 방학동 720-18,방학동삼성래미안1,37.6676198504815,127.046817765572
서울특별시 구로구 개봉동 492,개봉푸르지오,37.5015678689641,126.847162335199
서울특별시 동대문구 용두동 112-8,한양아이클래스,37.5777282391894,127.031371717206
서울특별시 노원구 중계동 579,화인상가,37.6494069250537,127.08136593924
서울특별시 도봉구 도봉동 642,현대성우,37.6761801985232,127.047817506991
서울특별시 성북구 돈암동 609-1,한진(609-1),37.5944725333435,127.012706037821
서울특별시 양천구 신월동 341-1,길훈,37.5234956753563,126.831464966348
서울특별시 서초구 반포동 100-1,노블하우스,37.4960259426279,126.996667312384
서울특별시 동작구 사당동 105,신동아4,37.489824423368,126.977745172841
서울특별시 강서구 화곡동 1009-8,타워빌,37.5472398030067,126.834645998953
서울특별시 양천구 목동 709-2,성원2,37.5427806182974,126.863741092615
서울특별시 중랑구 망우동 461-12,산솔트윈,37.5955472746717,127.098282397706
서울특별시 노원구 중계동 364-12,주공6,37.6486635394573,127.077598436703
서울특별시 중구 순화동 215,바비엥3,37.5631059622005,126.969569549275
서울특별시 노원구 상계동 1063,상계현대3차,37.6719288518576,127.052648476813
서울특별시 성북구 상월곡동 101,동아에코빌,37.6087723133633,127.045612298275
서울특별시 중랑구 신내동 397,동성1,37.610185758581,127.096415262131
서울특별시 강서구 화곡동 474-1,미주,37.5374528418745,126.855196265871
서울특별시 광진구 광장동 148-4,워커힐푸르지오,37.5498262729836,127.108696641158
서울특별시 은평구 녹번동 29-106,월든힐스,37.6047262524156,126.932905335588
서울특별시 관악구 봉천동 30-8,관악태우미소가,37.4839483810756,126.955845466061
서울특별시 서대문구 홍제동 157-68,광산,37.5856089147184,126.9452798978
서울특별시 성동구 옥수동 528,옥수파크힐스101동~116동,37.5472989077685,127.01218936757
서울특별시 양천구 신정동 1307,경남아너스빌,37.517570779612,126.871277942016
서울특별시 영등포구 양평동3가 101,양평현대6차,37.53135642634,126.89379259265
서울특별시 서초구 서초동 1685-3,아크로비스타,37.4973504144781,127.013538045649
서울특별시 구로구 온수동 155,온수힐스테이트,37.4976017630545,126.820592862021
서울특별시 동작구 대방동 41,신한토탈,37.5121811853366,126.933119584129
서울특별시 강남구 역삼동 835-67,금호어울림,37.4923742270443,127.034771182974
서울특별시 구로구 구로동 745-57,(745-57),37.487120526152,126.885856440813
서울특별시 강서구 염창동 303,강변코아루,37.5533028215436,126.872940882263
서울특별시 양천구 신정동 1218-1,일진아이윌,37.5183168996847,126.848773356773
서울특별시 강동구 천호동 217-132,동아하이빌아파트,37.5446471437832,127.133881482323
서울특별시 강북구 미아동 1354,벽산라이브파크,37.6218232749574,127.012407457085
서울특별시 양천구 신월동 54-10,은하수,37.5389719476847,126.827451165598
서울특별시 은평구 증산동 173-1,디오반,37.5834678043616,126.908608962398
서울특별시 강동구 성내동 111-64,포레스(A동),37.5329188843313,127.122547156867
서울특별시 서초구 방배동 809-22,방배대우멤버스카운티,37.4921790673718,126.992268868864
서울특별시 양천구 목동 905-22,목동트윈빌,37.5321753616364,126.876743891714
서울특별시 서대문구 홍제동 307-9,홍제맨션,37.5876068764761,126.943391137382
서울특별시 은평구 갈현동 538,미미,37.619233848102,126.913963985976
서울특별시 강서구 화곡동 909-2,화곡대진,37.5278746114572,126.845620319137
서울특별시 노원구 중계동 34-5,현대(6차),37.6452921261057,127.082544741726
서울특별시 종로구 익선동 55,현대뜨레비앙,37.5751118972517,126.990057597088
서울특별시 도봉구 도봉동 657,한양수자인,37.6745440831023,127.047662295599
서울특별시 강남구 청담동 23,현대아파트,37.5218378508926,127.041357725173
서울특별시 용산구 원효로3가 124-1,금성,37.533887705911,126.957478191596
서울특별시 강서구 공항동 1371,해태,37.5635549411897,126.815248096942
서울특별시 관악구 신림동 1644,강남,126.9055295,37.4839388
서울특별시 강동구 길동 457-1,강동렘브란트,37.5350525464131,127.137286547919
서울특별시 강서구 화곡동 1071-19,강서뉴타워,37.5390663932795,126.835418976281
서울특별시 양천구 목동 131-45,리버하이츠,37.5440100700183,126.881393566417
서울특별시 송파구 방이동 89,올림픽선수기자촌2단지,37.5166909917264,127.137712375583
서울특별시 서초구 우면동 717,서초네이처힐3단지,37.4656521008404,127.027181197541
서울특별시 구로구 개봉동 471,삼호,37.4945679422391,126.857307896676
서울특별시 구로구 구로동 97-2,순영웰라이빌2차,37.4960795695469,126.891564274155
서울특별시 은평구 응암동 760,백련산힐스테이트2차,37.5892706101884,126.923090643465
서울특별시 성북구 정릉동 1020,정릉우성아파트 101~105동,37.600818638383,127.014498266503
서울특별시 서초구 반포동 18-1,래미안퍼스티지,37.5023902684594,126.995965286053
서울특별시 노원구 중계동 369,주공2,37.6574763373212,127.077434215909
서울특별시 광진구 자양동 810,자양힐101동,37.5400836898973,127.081760808235
서울특별시 성북구 정릉동 1018,태영,37.6061501548552,127.01592319515
서울특별시 강서구 방화동 862,한숲마을대림,37.5768121185005,126.817474137533
서울특별시 도봉구 방학동 705-17,퍼스티안,37.6673492277368,127.043924400911
서울특별시 강동구 암사동 414-2,롯데캐슬퍼스트,37.5551667468122,127.143838799591
서울특별시 은평구 불광동 635,북한산힐스테이트1차아파트,37.6128212718274,126.935473714353
서울특별시 강남구 일원동 731,한솔마을,37.4826291743574,127.076520309277
서울특별시 용산구 산천동 193,리버힐삼성,37.5344326622037,126.950182625895
서울특별시 노원구 하계동 274,청솔(시영7),37.6323091632046,127.071724912179
서울특별시 강서구 내발산동 753,마곡수명산파크4단지,37.5520478232459,126.822560908166
서울특별시 강동구 천호동 302-3,태천와이드빌,37.546370492489,127.131467928858
서울특별시 노원구 월계동 556,주공2,37.6289558723577,127.05665618256
서울특별시 도봉구 쌍문동 160,미라보,37.655100687047,127.031412400352
서울특별시 강서구 방화동 852,방화12도시개발공사,37.5710274870985,126.806399839179
서울특별시 은평구 갈현동 522-16,웰빙,37.6176851493915,126.910701738315
서울특별시 노원구 중계동 161-1,중앙하이츠,37.6600007420976,127.077655908293
서울특별시 양천구 신정동 972-2,경동미르웰,37.5218276144278,126.852517638229
서울특별시 강서구 화곡동 1150,화곡3차보람,37.5367809430406,126.857846743316
서울특별시 동대문구 장안동 586,U포그니 2차,37.5711667271187,127.068639119465
서울특별시 도봉구 쌍문동 158,한양7,37.6558809051642,127.034124384435
서울특별시 양천구 목동 627-2,행복자,37.5466452585704,126.866012987112
서울특별시 구로구 구로동 1256,구로현대,37.4900377520776,126.895432921379
서울특별시 강남구 역삼동 747,노블스위트,37.4961010962571,127.03731718179
서울특별시 노원구 상계동 1318,노원IPARK,37.6598474260427,127.068904053591
서울특별시 강남구 역삼동 783-3,갤러리하우스,37.4944275358755,127.043467062321
서울특별시 강서구 화곡동 361-1,대림,37.5340208453509,126.8375370868
서울특별시 마포구 중동 393,건영월드컵,37.5683106029062,126.911745945758
서울특별시 서대문구 북가좌동 481,DMC래미안e편한세상,37.5747334832097,126.907916083955
서울특별시 관악구 신림동 1730,신림푸르지오,37.4792384454661,126.909039951252
서울특별시 송파구 풍납동 401-1,쌍용,37.52741655661,127.118040521722
서울특별시 관악구 신림동 1715,우방,37.4884649259288,126.918643067851
서울특별시 구로구 구로동 104-9,성호메이플라워멤버스빌,37.4969048165442,126.891384859124
서울특별시 은평구 수색동 415-1,대림한숲,37.586899476029,126.89916689751
서울특별시 강동구 천호동 50-11,다성이즈빌(50-11),37.5426880115663,127.141229819623
서울특별시 강북구 수유동 50-20,태솔캡슬,37.6327843844827,127.021873570861
서울특별시 성북구 정릉동 1037,정릉꿈에그린,37.6018582085389,127.011110105709
서울특별시 서대문구 홍은동 22,유원,37.5971942301707,126.945084687797
서울특별시 강북구 미아동 797,미아1차래미안,37.6262840119185,127.018899634158
서울특별시 은평구 녹번동 176-22,유일아트리움,37.6023943315053,126.922224178203
서울특별시 강동구 길동 394-17,율전에버그린아파트,37.5368713993513,127.140802927409
서울특별시 중구 황학동 2523,황학아크로타워,37.5660419798503,127.021721835241
서울특별시 강서구 마곡동 741,마곡엠밸리8단지,37.5643663889963,126.819154429803
서울특별시 서대문구 홍제동 461,홍제삼성래미안,37.5781824961904,126.951950212766
서울특별시 서대문구 홍제동 82,홍제한양,37.5832772226944,126.947232533354
서울특별시 동작구 흑석동 336,흑석한강푸르지오,37.5040994188129,126.966284444741
서울특별시 성동구 마장동 818,현대,37.5702626286176,127.041996762487
서울특별시 강서구 내발산동 711-1,보람하이빌,37.5507146617389,126.832522909118
서울특별시 관악구 신림동 497-5,보라매해담채,37.488788840144,126.916706346787
서울특별시 성북구 정릉동 1021,대우,37.6174300420309,127.002991161254
서울특별시 중랑구 망우동 506-8,EG Soul Leader,37.5957067932724,127.093345706876
서울특별시 동대문구 장안동 380-1,공감대(380-1),37.5680329882019,127.067680447351
서울특별시 노원구 공릉동 106,공릉 해링턴플레이스,37.6273815936787,127.091621159803
서울특별시 은평구 구산동 226,구산그린빌,37.6051608009671,126.904298121593
서울특별시 마포구 공덕동 469,래미안공덕5차,37.5502187192036,126.953735814082
서울특별시 은평구 신사동 140-1,라이프미성,37.5900960178265,126.909507683456
서울특별시 관악구 신림동 1656,라이프미성,37.4827892255973,126.90291924339
서울특별시 노원구 상계동 1305,동양엔파트,37.6573543256891,127.064264260882
서울특별시 강북구 미아동 813,래미안트리베라1단지,37.6156943247238,127.021139026425
서울특별시 강남구 삼성동 16-2,삼성동힐스테이트 1단지,37.5165602922999,127.04718779295
서울특별시 용산구 이촌동 411,동아그린,37.5244879118315,126.957968161392
서울특별시 광진구 구의동 236-25,솔렌시아2,37.5430146393483,127.084703763603
서울특별시 송파구 잠실동 35,트리지움,37.5080150494419,127.090283544652
서울특별시 동대문구 장안동 95-1,장안현대,37.580826270518,127.068513037974
서울특별시 도봉구 쌍문동 727,파라다이스빌,37.6559311933231,127.027521712468
서울특별시 강북구 번동 234,주공4단지,37.6308935874817,127.038680261439
서울특별시 동작구 사당동 1048-8,오림센트빌,37.4773960210813,126.973478863939
서울특별시 광진구 자양동 658-14,자양,127.0844701,37.5325049
서울특별시 양천구 신정동 733-31,수정,37.5131514595831,126.841765004909
서울특별시 송파구 오금동 138,우방,37.5012704457093,127.139742539875
서울특별시 노원구 공릉동 370-4,신원아파트,37.6277216023945,127.07507254252
서울특별시 강남구 논현동 107-44,우민,37.5178497131317,127.03738750871
서울특별시 동대문구 답십리동 498-7,청계 지웰,37.5701769955012,127.049533732451
서울특별시 강남구 논현동 276-1,아크로힐스논현,37.5095303215604,127.038421201117
서울특별시 구로구 구로동 1274,신성미소지움,37.4797916432559,126.896735622301
서울특별시 금천구 시흥동 1011,우방,37.4490734382987,126.913658594513
서울특별시 서대문구 홍제동 460,인왕산현대,37.5858575994513,126.949974583404
서울특별시 강동구 둔촌동 61-8,태상아트빌,37.5326736538029,127.142668162239
서울특별시 서대문구 남가좌동 385,DMC파크뷰자이1단지,37.5744019902031,126.917907814167
서울특별시 강남구 역삼동 723-16,프리빌리지,37.4999058900021,127.041306383797
서울특별시 광진구 구의동 611,구의현대2단지,37.537824078736,127.096219392344
서울특별시 마포구 상암동 1736,상암월드컵파크10단지,37.5863328492209,126.881972706527
서울특별시 송파구 거여동 136,삼호,37.4965721621785,127.143566326949
서울특별시 성북구 길음동 1280,길음뉴타운2단지푸르지오,37.6104990797943,127.016372618933
서울특별시 동대문구 휘경동 368,브라운스톤휘경,37.5899979987381,127.06553172159
서울특별시 강동구 암사동 488-3,다성이즈빌Ⅰ,37.5483203249905,127.134997270562
서울특별시 도봉구 방학동 701-15,거성학마을아파트,37.6666197978974,127.039853975282
서울특별시 구로구 구로동 256-1,삼성래미안,37.4866606515713,126.891399918226
서울특별시 강서구 등촌동 694,대림,37.5636169050906,126.847393103837
서울특별시 광진구 구의동 656,새한,37.5412876569611,127.087837362694
서울특별시 종로구 혜화동 20-12,혜화훼미리,37.588178430652,127.001075843979
서울특별시 강서구 화곡동 926-5,한양아이클래스,37.5288410646222,126.84176976763
서울특별시 송파구 문정동 3,현대1,37.491466228576,127.128481171986
서울특별시 은평구 불광동 484-60,제이타워,37.6205747812794,126.920908278529
서울특별시 용산구 원효로4가 118-16,산호,37.532797205479,126.950923982952
서울특별시 관악구 봉천동 893-1,외 3필지 프라비다M,37.4823862782126,126.947625231145
서울특별시 양천구 신정동 1296,아이파크,37.5213687714172,126.872854443912
서울특별시 서대문구 북가좌동 458,DMC아이파크,37.576951075894,126.914595329134
서울특별시 서초구 서초동 1684,서초4현대,37.5002038451468,127.018590174775
서울특별시 구로구 구로동 560,신도림현대,37.5052452982341,126.885991599049
서울특별시 송파구 가락동 140,가락(1차)쌍용아파트,37.4946614092198,127.129853687565
서울특별시 성북구 종암동 130,아이파크종암동 1차,37.6028249858547,127.029399897773
서울특별시 강동구 길동 415-13,강동큐브(2차),37.5366245950933,127.136132976612
서울특별시 금천구 시흥동 1026,남서울힐스테이트,37.4479033151811,126.900722652942
서울특별시 영등포구 영등포동1가 145,내이처해밀,37.5171863952851,126.912749685174
서울특별시 금천구 시흥동 1015,시흥베르빌,37.4575519359473,126.897593557221
서울특별시 성북구 정릉동 1015,경남,37.6048471448085,127.017803289788
서울특별시 서초구 서초동 1451-89,서초중흥S-클래스(도시형생활주택),37.4815246791261,127.013406525558
서울특별시 노원구 중계동 362-1,주공8,37.6463716122596,127.074959755087
서울특별시 은평구 신사동 297,신사씨티,37.6005411721761,126.903655278222
서울특별시 노원구 상계동 1276,청암2단지,37.6625064307881,127.078111067764
서울특별시 송파구 풍납동 251-2,토성현대,37.5326235922496,127.116436612914
서울특별시 송파구 가락동 80,성원상떼빌,37.4948121610825,127.120132764747
서울특별시 강남구 대치동 890-49,선릉역대우아이빌(890-49),37.5044954460598,127.051585189734
서울특별시 은평구 녹번동 83-47,송학파크팰리스,37.6029309251847,126.928432968661
서울특별시 은평구 진관동 154,은평뉴타운 제각말 푸르지오(5-1단지),37.6371422182011,126.935928308893
서울특별시 노원구 중계동 512,중계무지개,37.6434962139665,127.065740831728
서울특별시 금천구 독산동 1093-4,한신아파트,37.4553912730949,126.888877618767
서울특별시 노원구 중계동 593,삼성,37.6485870640359,127.084143743208
서울특별시 도봉구 쌍문동 59-5,한양6,37.6558426422301,127.028218971963
서울특별시 노원구 상계동 1302,대창센시티,37.6714625463851,127.051534150434
서울특별시 강북구 번동 418-3,효성인텔리안,37.6386747681785,127.0270330299
서울특별시 양천구 신정동 311,목동신시가지10,37.5150078728547,126.857838508873
서울특별시 서초구 서초동 1445-4,래미안서초유니빌,37.4846872089607,127.016991752076
서울특별시 영등포구 신길동 1343,대방전철,37.5143859855881,126.925370962892
서울특별시 강남구 대치동 888,대치아이파크,37.4958669797852,127.054749094366
서울특별시 강동구 명일동 41,삼환고덕,37.549353435076,127.151184422425
서울특별시 관악구 봉천동 1718,벽산블루밍,37.4873527233282,126.945428874003
서울특별시 송파구 문정동 15,문정동아,37.4876092812479,127.128486777807
서울특별시 노원구 공릉동 737,삼익아파트,37.6272707456973,127.080410510088
서울특별시 성동구 옥수동 250,삼성,37.5426294442931,127.015554372439
서울특별시 용산구 한남동 808,대림아르빌,37.5349657422928,127.00136404478
서울특별시 송파구 풍납동 260,현대리버빌1지구,37.5310977136334,127.115553699492
서울특별시 강서구 화곡동 1011-6,희훈리치파크,37.5465378561662,126.834532126506
서울특별시 광진구 광장동 554-7,현대5,37.5402253740643,127.099966734736
서울특별시 노원구 상계동 1273,북부현대,37.6741860540527,127.050219320333
서울특별시 성동구 성수동1가 707,서울숲한양현대,37.5454391560957,127.047711015128
서울특별시 강남구 청담동 5-25,휴먼스타빌,37.5236847892354,127.046056275002
서울특별시 서초구 방배동 725,방배신삼호,37.4966857699647,126.988420813084
서울특별시 노원구 상계동 740,상계주공2(고층),37.6504272951639,127.059109039116
서울특별시 용산구 신계동 48,용산e편한세상,37.536723363574,126.966527167157
서울특별시 중구 신당동 842,약수하이츠,37.5551915990934,127.016359379417
서울특별시 광진구 구의동 547-7,광진해모로리버뷰,37.5333471777498,127.092165720604
서울특별시 종로구 사직동 9-1,광화문풍림스페이스본(106동),37.5735202837045,126.967807531773
서울특별시 송파구 장지동 849,송파파인타운3단지,37.4834422171547,127.131834041645
서울특별시 성북구 길음동 1285,길음뉴타운7단지(두산위브),37.6094680215088,127.019141594884
서울특별시 서대문구 남가좌동 377,남가좌삼성,37.5784968293823,126.917392296871
서울특별시 성북구 정릉동 1022,대동황토방,37.6078480953106,127.005909299763
서울특별시 도봉구 창동 305,창동주공1단지,37.6535964253192,127.039179546469
서울특별시 성동구 옥수동 220-1,한남하이츠,37.5395083271239,127.013812696365
서울특별시 영등포구 양평동1가 269,이너스삼성,37.5240930503776,126.888850463297
서울특별시 광진구 구의동 665,파크타운,37.5513392358641,127.090532462896
서울특별시 송파구 문정동 150,올림픽훼밀리타운,37.4881292540693,127.111066039437
서울특별시 강동구 길동 160,신동아,37.5392715867932,127.148442269865
서울특별시 노원구 중계동 502-1,중계그린1단지,37.6430702786721,127.064011517969
서울특별시 관악구 남현동 1135,우림루미아트,37.4726996250015,126.975269854648
서울특별시 관악구 봉천동 1021,일두(1021),37.4889701928515,126.954067603784
서울특별시 강남구 개포동 651-1,"우성9차아파트 901동, 902동",37.485038162571,127.056969855939
서울특별시 강동구 천호동 164-70,하이브2,37.5372032429608,127.133266690208
서울특별시 용산구 이태원동 22-2,청화1,37.5304593381506,126.996398894072
서울특별시 서초구 잠원동 70,신반포4,37.5100774617262,127.00618004755
서울특별시 도봉구 창동 27,주공19단지(창동 리버타운),37.6490757525427,127.051571256137
서울특별시 성동구 응봉동 275,신동아,37.5495375702385,127.029000872671
서울특별시 송파구 문정동 68-5,자이파인빌(102동),37.4835072156872,127.125258766117
서울특별시 송파구 방이동 171,올림픽베어스타운1,37.5147607136931,127.119120258928
서울특별시 강북구 번동 139,해모로아파트,37.6262740785715,127.0369032128
서울특별시 강서구 화곡동 24-138,토석아네스아파트,37.545521581353,126.846303734801
서울특별시 성북구 정릉동 1030,정릉힐스테이트1차,37.6002932818039,127.017106903316
서울특별시 도봉구 쌍문동 732,북한산 코오롱 하늘채,37.6478841889324,127.024070387404
서울특별시 양천구 목동 714-1,두란,37.5408595657916,126.864731719933
서울특별시 중구 신당동 840,현대,37.5605041293678,127.022970424804
서울특별시 동작구 상도동 533,힐스테이트 상도 프레스티지,37.4947527141503,126.948270774161
서울특별시 도봉구 쌍문동 56,삼익세라믹,37.657108294469,127.037735333118
서울특별시 노원구 상계동 1110,두산,37.6780189926554,127.052913393102
서울특별시 강동구 강일동 717,고덕리엔파크2단지,37.5587972921376,127.173182162867
서울특별시 마포구 신공덕동 15-80,공덕프로포즈2,37.5450217138148,126.955019856637
서울특별시 관악구 신림동 1703-1,LIG 대학마을(건영아파트3차),37.4667834195006,126.941886248025
서울특별시 강남구 도곡동 199-1,도곡지웰카운티 102동,37.4867867849012,127.043540992247
서울특별시 강동구 길동 456-3,강동큐브,37.5354385804166,127.137092197003
서울특별시 용산구 도원동 23,삼성래미안,37.5386030532321,126.954943490673
서울특별시 구로구 개봉동 489,개봉동현대아이파크,37.4895036252786,126.860070762208
서울특별시 구로구 고척동 97-3,삼명,37.4991113951697,126.856152763523
서울특별시 도봉구 도봉동 595,럭키,37.6803991475084,127.045004393783
서울특별시 서초구 잠원동 60-7,녹원한신,37.5120888432434,127.011324358779
서울특별시 성북구 정릉동 435,정릉하이츠빌2단지,37.6038670811154,127.010847672186
서울특별시 송파구 잠실동 44,레이크팰리스,37.5075341594038,127.093214315872
서울특별시 도봉구 도봉동 644,도봉파크빌3,37.6875027931933,127.04847610748
서울특별시 용산구 이촌동 422,북한강(성원),37.5275799081747,126.953704659794
서울특별시 성북구 종암동 125-1,고려,37.5989314428435,127.027151586964
서울특별시 도봉구 도봉동 655,래미안도봉,37.6796885984595,127.047175070103
서울특별시 영등포구 신길동 4934,삼성래미안,37.505139698634,126.914597806278
서울특별시 구로구 구로동 440,보광,37.4950173263413,126.884665090886
서울특별시 영등포구 신길동 261-22,신길레전드 힐스,37.5056310474546,126.908385786929
서울특별시 영등포구 영등포동4가 103,영등포그랑그루,37.5184760808639,126.903251180927
서울특별시 서초구 잠원동 73,신반포2,37.5116583511688,127.00446943136
서울특별시 강서구 화곡동 143-6,성재센트리움아파트,37.5413720146469,126.841720546216
서울특별시 서초구 서초동 1330,서초동삼성쉐르빌2,37.4939616380396,127.02791641287
서울특별시 성동구 옥수동 428,극동,37.5418258939597,127.011110130641
서울특별시 용산구 서빙고동 241-21,신동아,37.5191002810313,126.989737216338
서울특별시 성동구 성수동1가 676-5,현대,37.5483987944414,127.040626087864
서울특별시 성북구 길음동 1283,길음뉴타운6단지(래미안),37.6071180410239,127.023262558082
서울특별시 강남구 역삼동 728-10,네스빌(728-10),37.498231884298,127.040074736455
서울특별시 중랑구 묵동 385,현대아이파크,37.6106954689326,127.073480246547
서울특별시 중랑구 면목동 1522-1,두산5,37.5779593558972,127.081092507639
서울특별시 도봉구 쌍문동 59-3,한양5,37.6557984051554,127.03175856369
서울특별시 금천구 시흥동 1006,벽산3,37.4530159288078,126.9174650573
서울특별시 중랑구 중화동 452,동구햇살아파트101동,37.599858595669,127.078438923414
서울특별시 은평구 신사동 354,라이프씨티,37.6026295707916,126.905204717654
서울특별시 종로구 평창동 596,삼성,37.6107847060306,126.978142953802
서울특별시 노원구 상계동 721,상계주공5(저층),37.6529887282798,127.063558586941
서울특별시 양천구 신월동 1022,벽산블루밍1단지,37.5138716476081,126.84204637362
서울특별시 도봉구 창동 808,동아청솔,37.6588889617162,127.049087839187
서울특별시 노원구 상계동 1281,코오롱,37.6531703444212,127.069355135648
서울특별시 종로구 숭인동 1421-1,종로동광모닝스카이,37.5734426327001,127.022384057182
서울특별시 구로구 구로동 1265,구로두산,37.4898993993674,126.888961869782
서울특별시 구로구 구로동 685-124,중앙하이츠,37.4977393734277,126.876310284198
서울특별시 동대문구 장안동 381-3,한강훼미리,37.568489148338,127.068018175432
서울특별시 은평구 구산동 355-82,금강포란재(101),37.6135671548238,126.905235573602
서울특별시 노원구 공릉동 725,풍림아파트A,37.6302815782115,127.065702114261
서울특별시 양천구 신월동 128,태헌(신월프라자),37.5311113555178,126.833603986348
서울특별시 성북구 하월곡동 222,월곡두산위브,37.6074621211761,127.038729506968
서울특별시 서대문구 북가좌동 371-1,월드컵현대,37.5755770995711,126.9049794448
서울특별시 성북구 정릉동 1031,정릉힐스테이트3차,37.615141948923,127.007701936255
서울특별시 동대문구 장안동 329-2,장안힐스테이트,37.5763379008361,127.074572635161
서울특별시 관악구 봉천동 1729,서희스타힐스,37.4886505222551,126.95950602146
서울특별시 강서구 등촌동 631-9,대동황토방,37.5559752576029,126.862167378633
서울특별시 양천구 신정동 743-2,신정6현대,37.5086465390642,126.842376898845
서울특별시 강동구 천호동 32-2,성인아파트,37.5477800595312,127.142160109538
서울특별시 강남구 일원동 711,수서,37.4931540384403,127.090991396006
서울특별시 송파구 장지동 845,송파파인타운5단지,37.4796206706018,127.129726468504
서울특별시 영등포구 신길동 102-8,우성4,37.5145812905133,126.917725103444
서울특별시 송파구 장지동 837,송파파인타운4단지,37.4820278121959,127.130129401329
서울특별시 강동구 암사동 472-18,에스엠해그린,37.5520761447216,127.133243034595
서울특별시 구로구 구로동 98-10,비즈트위트그린,37.4953573579861,126.890430534805
서울특별시 구로구 오류동 351,서해그랑블,37.4872238227252,126.829557806373
서울특별시 종로구 명륜2가 4,아남1,37.585876127948,126.99960203377
서울특별시 중구 신당동 851,래미안하이베르,37.5610379790132,127.020985832433
서울특별시 강동구 상일동 473,동아,37.5458608127426,127.167853573781
서울특별시 관악구 봉천동 7-312,동아타운21,37.4889674727778,126.957139232908
서울특별시 서초구 서초동 1514-6,옥스포드빌라트,37.4860768430251,127.005579823846
서울특별시 영등포구 여의도동 11-1,순복음(초원),37.5308156590605,126.923932927931
서울특별시 양천구 신정동 318-12,목동삼성쉐르빌Ⅱ,37.5216245595859,126.870444168108
서울특별시 구로구 구로동 44-8,비즈트위트 오렌지,37.5021327598939,126.891425690169
서울특별시 마포구 연남동 249-3,노블레스빌2,37.5642739751874,126.921594100675
서울특별시 성동구 송정동 90,건영,37.5562716907636,127.071436032611
서울특별시 강남구 논현동 39-10,비쥬힐,37.5148347392574,127.027320959707
서울특별시 동작구 신대방동 364-55,펭귄,37.4962029334396,126.922772752258
서울특별시 서초구 서초동 1338-1,풍림아이원플러스,37.4903376051273,127.029767346477
서울특별시 중랑구 망우동 579,한울네세창,37.5984089891568,127.106302078245
서울특별시 노원구 월계동 18,한진한화그랑빌,37.6187253727752,127.067084588448
서울특별시 동대문구 장안동 336,장안현대홈타운(336),37.5710568281709,127.075113657819
서울특별시 강서구 등촌동 634-2,한사랑2삼성,37.5546232165761,126.864184670431
서울특별시 은평구 진관동 12,은평뉴타운상림마을(현대아이파크B-10),37.6451329256381,126.926883785097
서울특별시 성북구 하월곡동 227,월곡갑을명가,37.6032954435101,127.04203446379
서울특별시 광진구 광장동 484,현대3,37.5400640074108,127.097812029009
서울특별시 은평구 진관동 25,은평뉴타운 구파발(삼성래미안9단지),37.6447082905283,126.920876918142
서울특별시 강서구 화곡동 1139,초록,37.5453154078179,126.833078146639
서울특별시 성북구 정릉동 1028,정릉e-편한세상,37.6150097852448,127.010974446885
서울특별시 서대문구 홍은동 455,홍은동벽산,37.5944921897087,126.945544019326
서울특별시 서대문구 북가좌동 431,DMC한양,37.5762716171408,126.909844105861
서울특별시 노원구 상계동 637,상계주공13(고층),37.6685852841955,127.061119667926
서울특별시 동대문구 이문동 311,래미안이문2차,37.5930356072908,127.060984794097
서울특별시 강북구 우이동 1,성원상떼빌,37.6621060337288,127.013875841181
서울특별시 구로구 구로동 108-2,새솔금호,37.5001619663469,126.890520884986
서울특별시 강남구 개포동 649,경남1,37.4854059409863,127.054710026842
서울특별시 중랑구 면목동 1529,경남아너스빌,37.5768749774403,127.080481152665
서울특별시 영등포구 영등포동8가 76-1,삼환,37.5299598453919,126.905079994793
서울특별시 은평구 불광동 285-18,경인에버빌(285-18),37.6094432149993,126.931669675723
서울특별시 동대문구 답십리동 990,두산,37.570069317441,127.059860257139
서울특별시 중랑구 묵동 164-4,묵동자이(1단지),37.6149132859804,127.077944822519
서울특별시 강서구 방화동 839,방화그린,37.5742556295155,126.820167898164
서울특별시 서대문구 북아현동 1009,두산,37.5597234797417,126.950732370424
서울특별시 은평구 갈현동 468-5,베로니스,37.6126498290704,126.916150013696
서울특별시 구로구 고척동 338,마젤란,37.5045853756561,126.863921148452
서울특별시 동대문구 회기동 346-18,베라체캠퍼스,37.5908011291028,127.056117386349
서울특별시 강남구 도곡동 161,삼성,37.4893275646597,127.046311637478
서울특별시 중랑구 상봉동 1,건영1,37.6034753401116,127.093654269252
서울특별시 은평구 진관동 20,상림마을8단지롯데캐슬(821~830동)BL1-12,37.6422598317106,126.923141080933
서울특별시 금천구 시흥동 806,시흥동 월드메르디앙,37.4594882978841,126.906960304687
서울특별시 성동구 마장동 784,세림,37.5659075429003,127.045256203018
서울특별시 양천구 목동 956,롯데캐슬위너,37.5479038468127,126.866954843863
서울특별시 용산구 한남동 684-85,아일랜드캐슬,37.5343968565482,127.000634271479
서울특별시 강북구 미아동 1353,에스케이북한산시티,37.6176383628418,127.010599691076
서울특별시 강동구 성내동 295,성안마을청구,37.5317536356539,127.123999745761
서울특별시 은평구 구산동 546,대림e-편한세상2,37.6123399721437,126.905527414861
서울특별시 동작구 신대방동 716,현진에버빌,37.4858802112997,126.907048455296
서울특별시 강남구 삼성동 143-37,현대타워(13층-27층),37.5062216594214,127.053059944282
서울특별시 강북구 번동 242,주공1단지,37.6245322840606,127.046598382732
서울특별시 도봉구 도봉동 30-1,한신,37.6860418285068,127.046764720981
서울특별시 종로구 효제동 65-2,포레스트힐시티,37.5740452531084,127.001867937909
서울특별시 강서구 염창동 288,현대1,37.5533141837481,126.874890556801
서울특별시 구로구 고척동 171-31,해피그린(171-31),37.5052944469007,126.85951731424
서울특별시 관악구 봉천동 1000,현대(관악),37.4926684929192,126.958262815168
서울특별시 구로구 개봉동 481,현대,37.4928802334449,126.859308079005
서울특별시 송파구 풍납동 413-1,현대1,37.5301130130253,127.119355326822
서울특별시 강서구 화곡동 900-1,해태드림타운,37.529762306173,126.846178706807
서울특별시 양천구 신월동 548-1,유림웰스빌,37.5167968812069,126.839932652336
서울특별시 중랑구 상봉동 115-61,주함해븐타워,37.5958131310758,127.085343449345
서울특별시 강서구 화곡동 925-5,풍원팰리스,37.5294143800607,126.842652924296
서울특별시 동대문구 휘경동 57,주공2,37.5832360364758,127.071898008969
서울특별시 강북구 미아동 474,미아동부센트레빌,37.6138958322777,127.026223409236
서울특별시 중랑구 면목동 1517,진로,37.5878352293087,127.101693609071
서울특별시 은평구 응암동 119-16,벧엘블레스빌,37.5954686177993,126.91838732211
서울특별시 구로구 고척동 306,경남2,37.504694587229,126.85713764147
서울특별시 양천구 신정동 1311,동일하이빌2단지,37.5119633992891,126.838702750777
서울특별시 금천구 독산동 332-14,계룡아파트,37.4670983100473,126.892792954178
서울특별시 노원구 공릉동 705,동부아파트,37.6278184379162,127.078156882221
서울특별시 송파구 오금동 165,상아2차아파트,37.4986413987929,127.136586683882
서울특별시 송파구 문정동 117,대우3,37.487459356122,127.132963213694
서울특별시 강남구 개포동 12,삼익대청아파트,37.4956264931259,127.077191033018
서울특별시 관악구 봉천동 875-1,관악캠퍼스타워,37.4811700742595,126.950284940868
서울특별시 송파구 가락동 196-1,동궁리치웰(101동),37.4936109767631,127.132244526737
서울특별시 은평구 갈현동 541-1,갈현건영,37.628975972544,126.913380555986
서울특별시 성북구 하월곡동 228,꿈의숲푸르지오,37.6099055249615,127.038697476749
서울특별시 송파구 거여동 294,거여5단지,37.4892096827534,127.144964294087
서울특별시 강동구 고덕동 688,고덕래미안 힐스테이트아파트,37.5576864625383,127.148577708994
서울특별시 강남구 삼성동 142-3,LG선릉에클라트(B),37.5061147390354,127.050947634813
서울특별시 마포구 창전동 438,신촌금호,37.5531172924553,126.932222250165
서울특별시 관악구 봉천동 1728,관악파크푸르지오,37.4820083335878,126.962084265391
서울특별시 강서구 염창동 268,관음삼성,37.5527346401778,126.869460423297
서울특별시 강남구 삼성동 87,아이파크,37.5183982498328,127.059549285144
서울특별시 송파구 가락동 21-6,가락쌍용(2차),37.5021716517865,127.122168125123
서울특별시 양천구 신월동 438-4,그린아트빌,37.5215660149683,126.838044299232
서울특별시 강동구 천호동 568,강변그대가리버뷰,37.5478687579557,127.122854644957
서울특별시 마포구 현석동 222,강변힐스테이트,37.5434218811795,126.932948545207
서울특별시 강동구 성내동 423-15,신성,37.5280691991815,127.131876338643
서울특별시 중구 신당동 413-4,태원팰리스,37.5584869362673,127.010573650528
서울특별시 송파구 오금동 2,대림,37.5109025358756,127.128646700882
서울특별시 성북구 정릉동 494,정릉하이츠빌1단지,37.6021738318794,127.010033201211
서울특별시 은평구 증산동 253,자선메르시안(101),37.5822578892689,126.907144774369
서울특별시 구로구 개봉동 367-2,태경하이빌,37.4848795874802,126.85434859931
서울특별시 영등포구 신길동 4501,우창,37.4966881477534,126.912589776283
서울특별시 동대문구 이문동 84,중앙하이츠빌,37.5967735276868,127.064913280434
서울특별시 도봉구 창동 821,초안산신도브래뉴,37.6330451682339,127.042279723103
서울특별시 성북구 정릉동 1033,우정에쉐르,37.6002511386884,127.010817364736
서울특별시 동작구 상도동 363-164,상도 휴엔하임,37.504967595768,126.937970420644
서울특별시 금천구 시흥동 962-8,백운한비치5,37.438626865702,126.903816002004
서울특별시 구로구 신도림동 649,대림e-편한세상7,37.5090729712449,126.882432752392
서울특별시 양천구 신정동 324-7,대림아크로빌,37.5154102156469,126.859608639376
서울특별시 동작구 상도동 450,상도동래미안1차,37.5052397636547,126.933133919908
서울특별시 서초구 반포동 757,반포 주공1단지,37.5053542268515,126.989035969938
서울특별시 강북구 미아동 812,삼성래미안트리베라2단지,37.6161238065432,127.021741379374
서울특별시 관악구 신림동 1700,라이프,37.4771351654163,126.913159063631
서울특별시 중랑구 신내동 449-1,경원,37.6053457087307,127.098194496466
서울특별시 강서구 방화동 885,방화동2차태승훼미리,37.5692872537049,126.808133157494
서울특별시 용산구 원효로1가 133-3,리첸시아용산,37.5379386735674,126.967973433167
서울특별시 송파구 풍납동 391,극동,37.5271172638056,127.116203376712
서울특별시 강서구 화곡동 1076-2,근상프리즘(1076-2),37.5414638502604,126.841268422565
서울특별시 양천구 신월동 207-24,금강,37.526930388315,126.833693822214
서울특별시 금천구 시흥동 1014,금광,37.4510322833601,126.911522152224
서울특별시 도봉구 창동 299,상아1차아파트,37.6540827294465,127.04218739129
서울특별시 동대문구 휘경동 109,롯데낙천대,37.5918091278995,127.063470854675
서울특별시 강남구 개포동 141,개포주공 1단지,37.4784893722905,127.061614360667
서울특별시 동대문구 용두동 104-3,동대문푸르지오시티(도시형생활주택),37.5777504650845,127.032477193881
서울특별시 강북구 미아동 811,두산위브트레지움,37.6194957328373,127.016283408953
서울특별시 서초구 반포동 30-26,반포리체,37.504467489825,127.012454510399
서울특별시 도봉구 방학동 732,신동아아파트4,37.662872736761,127.029669276882
서울특별시 강서구 방화동 869,신안네트빌2단지,37.5702774036468,126.809665323927
서울특별시 양천구 신정동 1219-1,신일해피트리,37.5175025209154,126.848732242397
서울특별시 강서구 화곡동 899-8,한울아파트,37.5297213253831,126.846813927331
서울특별시 구로구 개봉동 478,한진,37.485898739724,126.850970967732
서울특별시 동작구 상도동 126-17,세레노,37.4925834922093,126.955690554342
서울특별시 강서구 화곡동 1148,우장산롯데,37.5524650726524,126.845921112724
서울특별시 금천구 시흥동 882-61,와이즈플레이스,37.4550181299782,126.901002133189
서울특별시 동대문구 장안동 346-21,장안아트빌12차,37.5683341188516,127.070724022308
서울특별시 마포구 망원동 515,한강월드컵,37.5607795656913,126.899706897676
서울특별시 서대문구 홍은동 393-1,신원지벤스타4,37.5806080819978,126.929100099353
서울특별시 서초구 방배동 843-1,파인빌리지,37.4922884181221,126.995035763011
서울특별시 중랑구 면목동 193-1,한신,37.5864831132149,127.075805081355
서울특별시 성동구 옥수동 60,풍림아이원,37.5424819793086,127.01959913598
서울특별시 종로구 내수동 110-15,킹스매너,37.5732987034932,126.970466816885
서울특별시 강동구 길동 414-6,신암가온,37.5369687180999,127.137969385364
서울특별시 구로구 천왕동 281,천왕연지타운2단지,37.4840144134269,126.84334132511
서울특별시 양천구 신월동 1025,탑건진선미,37.538385097636,126.827986913208
서울특별시 강서구 화곡동 927-1,웰라이빌,37.5285659999317,126.842384319394
서울특별시 중랑구 묵동 20,신내두산,37.6157078616962,127.087466334097
서울특별시 노원구 월계동 924,초안2,37.6306654895742,127.043504483567
서울특별시 강동구 암사동 413,프라이어팰리스,37.5542066727371,127.140901062073
서울특별시 강서구 화곡동 915-30,임탑-A,37.5288701256716,126.843157283487
서울특별시 용산구 이촌동 300-23,한강맨숀,37.5193865878083,126.975025954742
서울특별시 서초구 방배동 799-8,써니힐즈,37.4929037023261,126.997434804676
서울특별시 송파구 잠실동 27,주공아파트 5단지,37.5131381759342,127.09304868009
서울특별시 송파구 석촌동 24-3,석촌호수효성해링턴타워,37.5065726243764,127.100341668262
서울특별시 강서구 염창동 289,신동아,37.5551185593145,126.868864597735
서울특별시 동작구 본동 484,경동윈츠리버,37.5094180674846,126.954507492454
서울특별시 강동구 둔촌동 170-1,둔촌주공4단지,37.5249677176279,127.140290598327
서울특별시 동대문구 답십리동 10,동아,37.569890008745,127.061631957974
서울특별시 서초구 서초동 1513-2,N-Suite(1513-2),37.4864997278088,127.006526018931
서울특별시 노원구 공릉동 109,비선아파트,37.6258183835065,127.087827761757
서울특별시 서초구 서초동 1337-3,urban place,37.4917097332991,127.029108764485
서울특별시 강서구 가양동 1461,가양2단지(성지),37.5710197152233,126.846462691088
서울특별시 마포구 연남동 259-1,대명,37.5617024149606,126.923614957999
서울특별시 성북구 길음동 1279,길음뉴타운1단지(래미안길음1차),37.6058494237907,127.020985165043
서울특별시 마포구 신정동 30,서강GS,37.5445686256453,126.931920958843
서울특별시 동대문구 장안동 556,방원예뜨랑,37.5805814950915,127.071954778982
서울특별시 동작구 신대방동 395-69,보라매아카데미타워,37.4912751024086,126.924094714271
서울특별시 노원구 상계동 1301,상계대림e편한세상,37.6744324231261,127.051378529186
서울특별시 서초구 서초동 1316-15,현대성우주상복합아파트,37.4982153593758,127.024347163495
서울특별시 중랑구 망우동 479,한일써너스빌리젠시1단지,37.5975232054583,127.093668889688
서울특별시 강남구 압구정동 448,현대13차(208~211동),37.5298193048425,127.027364437492
서울특별시 양천구 신월동 591-1,신안약수,37.5171350244276,126.847418809828
서울특별시 영등포구 영등포동7가 94-51,훼미리하우스117,37.525747305266,126.908857826436
서울특별시 송파구 송파동 163-14,현대,37.5033642528101,127.117700794714
서울특별시 중랑구 신내동 661,신내11대명,37.606714131825,127.093989362409
서울특별시 동대문구 휘경동 52,휘경베스트빌현대,37.5820674007335,127.074159232857
서울특별시 영등포구 당산동2가 16-1,대우,37.5208860332921,126.892859141484
서울특별시 동대문구 청량리동 60,한신,37.5874901917915,127.047645793449
서울특별시 노원구 상계동 1295,상계우방유쉘,37.6721825261507,127.057188339382
서울특별시 성북구 정릉동 1014,정릉스카이 쌍용 아파트,37.6001891368647,127.015743116955
서울특별시 도봉구 창동 715-25,새울(715-25),37.6543516133776,127.040558294455
서울특별시 성북구 돈암동 630,동소문현대,37.5984045659391,127.01337515266
서울특별시 송파구 신천동 17,파크리오,37.5213592954462,127.104971745978
서울특별시 도봉구 도봉동 87,삼환도봉,37.6803156142485,127.049745854649
서울특별시 도봉구 창동 812,창동현대타운,37.6471181492246,127.035269588373
서울특별시 구로구 구로동 97-4,하나세인스톤2차,37.496424920819,126.891952784386
서울특별시 중구 흥인동 13-1,청계천 두산위브더제니스,37.5668675982177,127.017122913186
서울특별시 광진구 광장동 218-1,극동1,37.5436567301031,127.104250290998
서울특별시 은평구 갈현동 539,한솔,37.6180648444086,126.910133017821
서울특별시 양천구 신월동 142-14,금하뜨라네,37.5345229054362,126.823430068404
서울특별시 도봉구 쌍문동 199-1,금호1,37.6582757702872,127.03393429406
서울특별시 노원구 공릉동 753,길성그랑프리텔아파트,37.6280596110069,127.070765849734
서울특별시 광진구 구의동 547,강변현대하이엘,37.5341391082547,127.092228583355
서울특별시 중구 남대문로5가 827,남산트라팰리스,37.5539946799726,126.975612746457
서울특별시 강서구 염창동 299,강변힐스테이트,37.5518116214165,126.874072375671
서울특별시 양천구 목동 935,진도1,37.5243141796552,126.868280050481
서울특별시 송파구 오금동 67,아남,37.5032965871378,127.136305641914
서울특별시 은평구 진관동 13,은평뉴타운상림마을(현대아이파크B-3),37.645686478376,126.927010489747
서울특별시 양천구 신월동 1017,대방샤인힐,37.5204418620769,126.838788685396
서울특별시 은평구 대조동 4-8,대조리치빌III,37.6116075359111,126.927974566105
서울특별시 마포구 서교동 487,대우미래사랑,37.5573352701834,126.916796137041
서울특별시 강서구 내발산동 749,마곡수명산파크5단지,37.5515866543282,126.82758267247
서울특별시 동대문구 장안동 329-3,래미안장안2차,37.5750720968253,127.074282139153
서울특별시 동대문구 답십리동 1000,래미안엘파인아파트,37.5755519113019,127.06699625602
서울특별시 구로구 구로동 98-4,대림역와이즈플레이스,37.4956164739157,126.890318882617
서울특별시 도봉구 쌍문동 53,성원,37.6589614772373,127.029344502312
서울특별시 구로구 고척동 331,삼익(2단지),37.5077871736169,126.852646264663
서울특별시 양천구 목동 929,목동청구한신아파트,37.541627815078,126.882642695623
서울특별시 강서구 염창동 292,동아,37.5552719720298,126.872960399991
서울특별시 서초구 잠원동 71-1,블루힐하우스,37.5118200914235,127.006237310492
서울특별시 구로구 오류동 347,오류동금호어울림,37.498526304307,126.83899187119
서울특별시 양천구 목동 758-2,목동2차아이파크,37.5364990373171,126.870390379436
서울특별시 노원구 공릉동 714,삼익4단지아파트,37.6295802610581,127.07142128961
서울특별시 중랑구 묵동 387,브라운스톤태릉,37.6187220377937,127.081537279057
서울특별시 강서구 가양동 1474,대림경동아파트,37.5670912310648,126.854748176977
서울특별시 영등포구 신길동 2-3,삼두,37.5143012194551,126.923846874259
서울특별시 마포구 도화동 544,고려,37.5408050156165,126.945946191673
서울특별시 강남구 역삼동 606-18,현대휴먼터치빌,37.5065208505908,127.033785182489
서울특별시 도봉구 쌍문동 719,현대3,37.6521958138418,127.021422016973
서울특별시 송파구 문정동 58,현대2,37.4836340171259,127.124548930365
서울특별시 성동구 금호동3가 917,금호1차푸르지오,37.5505579822553,127.020721706692
서울특별시 성동구 금호동3가 1662,금호한신,37.5505494639051,127.017088285139
서울특별시 도봉구 쌍문동 59,한양2,37.657630231949,127.031271352381
서울특별시 용산구 한남동 810,한남더힐,37.5361228594578,127.007307641122
서울특별시 구로구 천왕동 275,천왕이펜하우스6단지,37.4790207559893,126.84225746312
서울특별시 노원구 공릉동 604-11,대동아파트,37.6194502603585,127.072496274418
서울특별시 은평구 진관동 102,은평뉴타운 박석고개(힐스테이트1단지),37.6342707354029,126.919398866427
서울특별시 양천구 목동 721-2,일신파스텔,37.5397923273211,126.864021484294
서울특별시 영등포구 당산동4가 29,한강아파트,37.5279577936796,126.903380464154
서울특별시 강동구 성내동 463-1,탑건위너빌,37.5271959663711,127.12430014267
서울특별시 구로구 구로동 685-223,주공2,37.4911670949724,126.875645378981
서울특별시 구로구 천왕동 282,천왕이펜하우스1단지,37.4866893781833,126.837445160952
서울특별시 동작구 노량진동 228-7,은성,37.5072558263193,126.941397736007
서울특별시 종로구 창신동 703,창신쌍용2,37.5813234231068,127.012068001366
서울특별시 관악구 봉천동 1707-1,은천2단지아파트,37.4706668327352,126.964563654363
서울특별시 성북구 정릉동 1019,"정릉성원아파트 101동, 102동",37.606431360375,127.007784277192
서울특별시 송파구 장지동 895,송파와이즈더샵,37.4770954347659,127.14372351448
서울특별시 도봉구 창동 824,창동한승미메이드,37.6331637902992,127.042883631915
서울특별시 중랑구 망우동 577,예성그린캐슬,37.5971454492592,127.101898667181
서울특별시 은평구 갈현동 467-2,역촌맨션,37.6136324196541,126.916365126538
서울특별시 강서구 화곡동 46-120,에이원A동,37.5449083685813,126.84797938261
서울특별시 서초구 반포동 968,에이아이디차관주택,37.5006735958643,126.991233553078
서울특별시 서초구 잠원동 60-3,신반포8,37.5128709439946,127.012803830056
서울특별시 종로구 평창동 66-1,엘리시아,37.6097042483425,126.975874761938
서울특별시 중랑구 중화동 42,중화동건영아파트,37.6056993886468,127.083510702772
서울특별시 구로구 구로동 685-222,주공1,37.4951304128661,126.875360399385
서울특별시 성동구 상왕십리동 811,텐즈힐(2구역),37.5678250213489,127.025053595952
서울특별시 송파구 마천동 319,금호어울림,37.4928491855811,127.155607287778
서울특별시 관악구 봉천동 645-87,복권,37.4880173217958,126.938317208338
서울특별시 동작구 신대방동 395-68,보라매나산스위트,37.4906995321938,126.923944114665
서울특별시 종로구 평창동 72,롯데낙천대,37.6088822725209,126.97542257662
서울특별시 강서구 방화동 619-7,Air Palace(619-7),37.5627209818902,126.807522731364
서울특별시 양천구 신월동 1063,롯데캐슬,37.5195419716155,126.848124974896
서울특별시 송파구 문정동 58-17,동부화이트빌,37.4841506389813,127.124307601319
서울특별시 영등포구 문래동6가 45,현대2,37.5203840863949,126.883532975468
서울특별시 중랑구 중화동 208-33,동양엔파트,37.5939956436071,127.075008982696
서울특별시 노원구 공릉동 670-6,미라쉘,37.6182380045872,127.076317454153
서울특별시 강서구 화곡동 1091,화곡푸르지오,37.5472449743241,126.832243922532
서울특별시 강남구 역삼동 720-25,대우디오빌,37.5014764820153,127.042690475293
서울특별시 강남구 압구정동 456,"현대6차(78~81,83,84,86,87동)",37.5315341736395,127.029273123095
서울특별시 용산구 이촌동 436,래미안첼리투스아파트,37.5172287849102,126.980321728856
서울특별시 양천구 목동 908-28,부영2,37.5363752723271,126.881126305795
서울특별시 성동구 성수동2가 836,서울숲 금강아미움,37.5467190618497,127.059534690076
서울특별시 영등포구 양평동1가 14-1,한신공영,37.5215544308322,126.887659207514
서울특별시 동대문구 장안동 555-1,한신아파트,37.5798551673636,127.072309786658
서울특별시 중랑구 망우동 236-7,대보,37.6048477578285,127.106377037232
서울특별시 양천구 목동 904,목동신시가지4,37.5315163480803,126.870904725016
서울특별시 종로구 무악동 82,현대,37.5743447023263,126.959103079359
서울특별시 구로구 구로동 685-70,현대연예인,37.4932672296102,126.87786990054
서울특별시 서초구 잠원동 157,동아,37.5090443276541,127.009524539003
서울특별시 구로구 항동 233,현대홈타운스위트,37.4850638746129,126.81957030728
서울특별시 구로구 개봉동 472,두산,37.4953252173816,126.851730585144
서울특별시 서대문구 북가좌동 418-22,한울뉴타운,37.5771580429151,126.909292289103
서울특별시 중랑구 면목동 1502,현대,37.5751759965089,127.089222458333
서울특별시 노원구 상계동 1055,상계현대1차,37.6734971738289,127.053279824194
서울특별시 중랑구 면목동 1500,두산1,37.5817146496914,127.083995627911
서울특별시 관악구 봉천동 1708,두산,37.4837602834938,126.942701190325
서울특별시 도봉구 쌍문동 723,신원2,37.6582166673064,127.035759433408
서울특별시 영등포구 대림동 1121,신대림자이1단지,37.4865791105717,126.902341643176
서울특별시 은평구 불광동 631-1,대호프라자 아파트,37.6150686709961,126.933000699618
서울특별시 동작구 신대방동 565-21,우성2,37.493103626852,126.910601498561
서울특별시 노원구 월계동 780,청백3,37.6312069854896,127.050296196373
서울특별시 양천구 신월동 987-1,신월시영,37.5184159016956,126.835157228112
서울특별시 은평구 응암동 90-23,조이팰리스(90-23),37.6000527358818,126.919255288821
서울특별시 송파구 잠실동 175-4,잠실월드메르디앙,37.511340114419,127.07883210332
서울특별시 마포구 창전동 437,창전래미안,37.5520441337502,126.932100095013
서울특별시 도봉구 창동 810,신창,37.6407388217293,127.041114346694
서울특별시 동대문구 답십리동 488-18,센시티16,37.5662726373652,127.056330227232
서울특별시 은평구 수색동 345-5,제일아파트나동(345-5),37.5868334380277,126.892238325755
서울특별시 용산구 동자동 45,센트레빌아스테리움서울,37.5516315844006,126.972912206176
서울특별시 성동구 하왕십리동 258,청계벽산,37.5691096001774,127.032672663162
서울특별시 영등포구 양평동1가 20,신동아,37.5225223856935,126.885695628228
서울특별시 중랑구 상봉동 500,프레미어스엠코,37.5983328190955,127.091624142481
서울특별시 강서구 화곡동 381-7,태경(381-7),37.5393078521724,126.840068297268
서울특별시 관악구 신림동 1698,태흥,37.466021748776,126.931073018846
서울특별시 관악구 봉천동 1717,관악푸르지오,37.4859370065553,126.961821544248
서울특별시 광진구 광장동 581,광장자이,37.5426828561134,127.095049173913
서울특별시 용산구 한강로3가 65-230,한강대우트럼프월드3,37.5231469938916,126.962943339203
서울특별시 중랑구 망우동 576,가야써니빌,37.5958198603651,127.094712021585
서울특별시 중랑구 면목동 715,늘푸른동아,37.5736890471969,127.080369617106
서울특별시 성동구 응봉동 97,대림(2차),37.5528877577965,127.032768111714
서울특별시 동대문구 장안동 354-2,래미안장안,37.5668181232225,127.072180369911
서울특별시 강북구 미아동 1357,삼각산아이원,37.6170555597064,127.017723289038
서울특별시 은평구 불광동 638,북한산래미안아파트(1단지),37.6118719282293,126.938565593536
서울특별시 양천구 목동 901,목동신시가지1,37.5412913406969,126.87850378726
서울특별시 서대문구 홍제동 156-200,고은,37.5857462891939,126.945027997739
서울특별시 은평구 응암동 360-15,명진,37.591095041596,126.918804358717
서울특별시 관악구 신림동 1735-1,관악산휴먼시아 1단지,37.4622134077214,126.921077193374
서울특별시 송파구 가락동 95,동부센트레빌,37.4983324066007,127.116337209066
서울특별시 광진구 광장동 576,광장현대9단지,37.5419194923733,127.097416494314
서울특별시 도봉구 쌍문동 730,대우파크힐(쌍문동이안),37.6510930297809,127.029296985162
서울특별시 종로구 창신동 232,두산,37.5740774336835,127.013834360919
서울특별시 노원구 월계동 775,대우,37.6331173218039,127.052013843042
서울특별시 은평구 응암동 577-16,명남더블레스,37.5912237488191,126.917055760123
서울특별시 도봉구 창동 805,동아그린,37.6540633575601,127.046274482314
서울특별시 강서구 화곡동 920-15,남광아파트,37.5299920040428,126.841501809068
서울특별시 양천구 목동 912,목동신시가지5,37.5351566093996,126.881874415824
서울특별시 구로구 개봉동 199-4,림괄,37.4938085430205,126.859764990955
서울특별시 성동구 성수동1가 685-696,갤러리아 포레,37.5456773286722,127.042914714267
서울특별시 강동구 명일동 42,명일우성,37.5523679459388,127.152621415299
서울특별시 영등포구 당산동5가 11-33,당산디오빌,37.5332447828491,126.902291122854
서울특별시 강동구 명일동 15,삼익그린2차,37.5538092997685,127.147060992177
서울특별시 구로구 구로동 1281,한일유앤아이,37.4858484455147,126.876157009657
서울특별시 강남구 대치동 511,한보미도맨션2,37.4956953356085,127.068564672209
서울특별시 관악구 남현동 1132,흥화브라운빌,37.4711399371862,126.973032959605
서울특별시 노원구 중계동 358-2,주공4,37.6558199303153,127.076114066791
서울특별시 노원구 상계동 1255,은빛1단지,37.6808384621835,127.0542198702
서울특별시 강남구 압구정동 490,한양1차(영동한양),37.5295119716843,127.038376464689
서울특별시 마포구 대흥동 12-41,서희스타힐스,37.5563084215036,126.943285123977
서울특별시 양천구 신월동 136-8,우영아파트,37.532135959813,126.831560813715
서울특별시 송파구 오금동 133-16,영풍,37.501548719881,127.14099475929
서울특별시 송파구 풍납동 400-5,연지토성,37.5279697102875,127.117015514458
서울특별시 용산구 용산동5가 24-1,용산파크타워(24-1),37.5237113460813,126.972351473155
서울특별시 중랑구 면목동 1519,신성,37.5885679823742,127.073425653392
서울특별시 성북구 종암동 131,아이파크종암동 2차,37.596303698625,127.032512432299
서울특별시 강북구 수유동 648,수유벽산2차,37.6426557894829,127.01963902071
서울특별시 마포구 도화동 82,우성,37.5366444690313,126.947751367289
서울특별시 강동구 성내동 606,올림픽파크한양수자인,37.5271796181821,127.127965319697
서울특별시 영등포구 여의도동 55-1,대우트럼프월드,37.5175310485749,126.932597643229
서울특별시 서초구 서초동 1350-13,동원베네스트아파트,37.4849567031967,127.027114696265
서울특별시 마포구 서교동 486,서교푸르지오,37.5537619785992,126.923693794834
서울특별시 동작구 신대방동 713,롯데낙천대,37.4954099627716,126.912566500917
서울특별시 성북구 동소문동7가 120,브라운스톤동선,37.5960628966291,127.014089924778
서울특별시 성북구 정릉동 266-32,대창쉐르빌,37.6131031320356,127.011713872161
서울특별시 강서구 내발산동 704-2,우장산타워빌,37.5519154209522,126.83834112621
서울특별시 마포구 염리동 521,마포자이,37.5436032977766,126.94585387336
서울특별시 중랑구 면목동 538,신영,37.5872526201728,127.086344176161
서울특별시 영등포구 신길동 4780,보라매경남아너스빌,37.4947116756868,126.90897844388
서울특별시 노원구 상계동 765,상계주공1(고층),37.6477074025675,127.060010329586
서울특별시 중랑구 망우동 578,한진해모로,37.6032912781038,127.109841273166
서울특별시 광진구 자양동 779-8,구의현대홈시티,37.5374066951935,127.083099910723
서울특별시 강남구 세곡동 579,강남엘에이치1단지,37.4670982362638,127.102101820568
서울특별시 구로구 구로동 642-9,한신,37.4965752295641,126.87362950335
서울특별시 서대문구 남가좌동 376,남가좌동현대,37.5748922004571,126.921452672994
서울특별시 구로구 구로동 807-16,(807-16),37.4863850008808,126.885636283783
서울특별시 영등포구 당산동 121-108,훼미리하우스138,37.5276118418879,126.908048818974
서울특별시 관악구 신림동 746-43,건영1,37.4767561074089,126.912058124803
서울특별시 노원구 중계동 435-1,중계현대2,37.656569386736,127.074388527068
서울특별시 성북구 하월곡동 226,월곡래미안루나밸리,37.6002341968287,127.04265205735
서울특별시 성북구 정릉동 809,정릉중앙하이츠아파트,37.6187219853878,127.002243862835
서울특별시 금천구 시흥동 1016,한빛무궁화101동,37.4603150253393,126.907827688283
서울특별시 송파구 석촌동 285,잠실한솔,37.5040827777916,127.105219660796
서울특별시 양천구 신월동 1058,코아루2단지,37.5315130571983,126.828899760214
서울특별시 서대문구 홍제동 373,태영으뜸(데시앙),37.5937451325901,126.946828720085
서울특별시 성북구 석관동 110-2,중앙하이츠,37.6110674205665,127.066769308842
서울특별시 노원구 공릉동 743,공릉동 한보에센시티아파트,37.6279055006749,127.080130818232
서울특별시 동작구 상도동 527,이수브라운스톤상도(527-0),37.5062358749024,126.944541781061
서울특별시 서대문구 충정로3가 477,충림예하임,37.5626093675745,126.962772474921
서울특별시 성북구 보문동3가 230,이편한세상 보문,37.5827783807236,127.015625442683
서울특별시 은평구 갈현동 548,유호루하스,37.6236089884632,126.917419430143
서울특별시 구로구 구로동 1259,구일우성,37.4897580709997,126.877081155332
서울특별시 강남구 청담동 141-1,청담매스터빌,37.5274915543794,127.044326691303
서울특별시 광진구 자양동 792,자양10차현대홈타운,37.5332248164282,127.070449641356
서울특별시 도봉구 도봉동 51-12,중흥에스-클래스,37.6849363845361,127.046624241964
서울특별시 강동구 길동 401-1,하나플러스,37.5362229186844,127.14389337364
서울특별시 강서구 방화동 819,개화,37.5809502733256,126.813373127209
서울특별시 종로구 평창동 46-1,크래스빌,37.6085116402279,126.974316549585
서울특별시 송파구 잠실동 40,갤러리아팰리스,37.5107067799275,127.094231575378
서울특별시 구로구 개봉동 60-82,거성푸르뫼2,37.499825797138,126.843123623796
서울특별시 동작구 상도동 414,건영,37.5076264776599,126.949547851693
서울특별시 동작구 대방동 394-2,진성마블로스,37.4999610413673,126.927628339421
서울특별시 구로구 신도림동 642,대림2,37.5051228166042,126.88219103785
서울특별시 강남구 삼성동 2,서광아파트,37.5170321477204,127.042937103599
서울특별시 노원구 중계동 363,대림벽산(363),37.6477772551525,127.077578817918
서울특별시 도봉구 방학동 530,신동아아파트3,37.6602168506854,127.024007389313
서울특별시 중구 신당동 843,삼성,37.5585358838305,127.01844745293
서울특별시 마포구 노고산동 1-3,신촌포스빌,37.5562635278683,126.942121723333
서울특별시 송파구 풍납동 509,씨티극동1,37.5397992762347,127.117950737029
서울특별시 광진구 자양동 227-7,더샵스타시티,37.5370016363785,127.072962760454
서울특별시 강남구 역삼동 824-25,대우디오빌플러스,37.4975461306128,127.031093425879
서울특별시 서초구 서초동 1520-9,레미안서초6차(1520-9),37.4859246864006,127.006843351912
서울특별시 강남구 역삼동 727-9,요진와이시티미니,37.4975231419043,127.039302207331
서울특별시 노원구 공릉동 747,두산힐스빌아파트,37.6213122324645,127.079504363715
서울특별시 강서구 염창동 264-27,삼성한아름,37.5500783870633,126.871742504946
서울특별시 송파구 풍납동 254,미랜드퀸,37.5324567406168,127.115043617973
서울특별시 도봉구 창동 804,대우,37.6419195213127,127.038011023237
서울특별시 서대문구 홍제동 283-36,마체스터,37.596386732572,126.950091188351
서울특별시 금천구 독산동 1088,독산주공14단지,37.4602167873458,126.885814835631
서울특별시 구로구 구로동 701-76,현대로얄,37.4863150105277,126.877388690727
서울특별시 은평구 진관동 19,상림마을8단지롯데캐슬(810~820동)BL1-1,37.6436459287601,126.922900461734
서울특별시 서초구 반포동 20-43,반포자이,37.5078602234885,127.011582043737
서울특별시 서대문구 합동 31-9,사랑채,37.5611158613683,126.964781857696
서울특별시 강북구 번동 470-1,삼성,37.6413012911597,127.0315024438
서울특별시 중랑구 중화동 274-76,한영(103),37.6065141890726,127.082176614989
서울특별시 마포구 망원동 493,함성백합,37.5577168020574,126.900659537132
서울특별시 강동구 강일동 707,고덕리엔파크1단지,37.5616428685115,127.171480371181
서울특별시 광진구 자양동 670,현대3,37.5280713606664,127.083319324616
서울특별시 영등포구 대림동 785,현대2,37.5032552637059,126.895354097873
서울특별시 송파구 거여동 291,거여2단지동아,37.4911387850978,127.145805011961
서울특별시 동작구 대방동 501,대림아파트,37.5087434455459,126.924517791265
서울특별시 종로구 당주동 145,롯데미도파광화문빌딩,37.5713864751051,126.973698680555
서울특별시 강서구 내발산동 657,우장산힐스테이트,37.5570784073479,126.83808109977
서울특별시 송파구 장지동 856,송파파인타운10단지,37.4781340156972,127.131186737728
서울특별시 노원구 상계동 1272,수락현대,37.675081338349,127.059553104978
서울특별시 강동구 성내동 448-5,광남캐스빌(448-5),37.5246438998426,127.128656039109
서울특별시 광진구 자양동 579,우성1,37.5343511422776,127.073577477923
서울특별시 구로구 구로동 1278,구로두산위브,37.4858983185376,126.890628991331
서울특별시 송파구 오금동 64,그랑밸리(64),37.5023849191477,127.134287420862
서울특별시 동작구 상도동 416,아이파크,37.5006642434154,126.943414996004
서울특별시 성동구 금호동3가 700,금호자이2차,37.5505481318597,127.021392438543
서울특별시 강남구 자곡동 686,강남한양수자인(4단지),37.4765634437989,127.111752118301
서울특별시 노원구 중계동 587,양지마을(대림)1,37.6508593038502,127.069694753378
서울특별시 중구 충무로4가 306,남산센트럴 자이,37.562514395202,126.997824376224
서울특별시 종로구 명륜1가 2-12,송림아마레스아파트,37.5906610977665,126.997696516849
서울특별시 양천구 목동 928,건영,37.5414897658694,126.87296240258
서울특별시 송파구 문정동 72-3,건영1,37.4814504706559,127.125949530845
서울특별시 노원구 중계동 515-2,건영2,37.6459751467144,127.064166413458
서울특별시 성동구 하왕십리동 1070,센트라스,37.5666029325047,127.024082467223
서울특별시 강동구 둔촌동 621,초원동아,37.5330381921154,127.146136692232
서울특별시 영등포구 당산동1가 9-1,코오롱,37.5199566804594,126.899242004253
서울특별시 송파구 문정동 618,파크하비오,37.4796870553794,127.124979804141
서울특별시 영등포구 영등포동3가 19-2,포레스트힐 시티,37.5178689239197,126.907103130592
서울특별시 강남구 역삼동 836,한스빌(836),37.4919829893777,127.032955994209
서울특별시 노원구 공릉동 746,화랑해링턴플레이스아파트,37.6236611097554,127.081218702193
서울특별시 강북구 번동 138,한솔솔파크,37.6270422234363,127.039249659012
서울특별시 강서구 등촌동 695,주공5,37.5612172907678,126.844635678969
서울특별시 은평구 진관동 107,은평뉴타운 마고정(센트레빌3단지),37.6338060816554,126.925688437384
서울특별시 은평구 불광동 644,북한산 동호스카이,37.6220524462375,126.930880282269
서울특별시 강동구 상일동 476,중앙하이츠,37.551125518045,127.159671318302
서울특별시 구로구 신도림동 692,디큐브시티,37.5081230677129,126.888212953215
서울특별시 양천구 신정동 327,목동신시가지13,37.5149820078935,126.865132254851
서울특별시 송파구 가락동 165,래미안파크팰리스,37.4980047341751,127.130868208485
서울특별시 성북구 동소문동5가 120,돈암동일하이빌,37.5916838947718,127.014839122829
서울특별시 송파구 방이동 157,방이금호어울림,37.5127315673452,127.118399698141
서울특별시 양천구 신정동 1198-3,대성유니드2차,37.5210992335273,126.84859262957
서울특별시 마포구 연남동 244-15,새마을,37.5658824650622,126.920162836302
서울특별시 서초구 방배동 1008-2,래미안방배아트힐(1008-2),37.4769325431469,127.004656842419
서울특별시 중랑구 면목동 1513,면목삼호101,37.5764102807284,127.088247311103
서울특별시 성북구 돈암동 15-1,돈암동삼성,37.5989927554427,127.023132747169
서울특별시 노원구 중계동 103,동진,37.6523056253605,127.082191466266
서울특별시 광진구 자양동 809,자양강변I-Park,37.531259228582,127.069629361082
서울특별시 은평구 신사동 371,두산위브2차,37.5990538480847,126.90740881531
서울특별시 중랑구 신내동 803,대성유니트,37.6027387362779,127.096284818062
서울특별시 성북구 정릉동 210,정릉푸른마을동아,37.6068620275102,127.014521523408
서울특별시 영등포구 대림동 1125,보라매 신동아 파밀리에,37.4934038334905,126.904935059384
서울특별시 종로구 숭인동 296-19,삼전솔하임2차,37.5723925579397,127.016735679084
서울특별시 노원구 월계동 781,청백4,37.6318155292192,127.052326972987
서울특별시 양천구 신정동 1293,학마을1단지,37.5085358903662,126.844411617245
서울특별시 도봉구 방학동 496,벽산아파트2,37.6585351044817,127.025596522841
서울특별시 강남구 도곡동 968,하이페리온,37.4885895457311,127.034768297935
서울특별시 도봉구 방학동 718-7,방학E.S.A1아파트,37.6683298607216,127.045337365161
서울특별시 마포구 합정동 473,마포한강2차푸르지오,37.5510079695241,126.91164899787
서울특별시 도봉구 창동 603-25,"은성드림존101동,102동",37.6418144915878,127.039846498491
서울특별시 영등포구 여의도동 37,미성,37.5210144173791,126.923991634451
서울특별시 양천구 신정동 1285,푸른마을4,37.5134481463268,126.838427187149
서울특별시 송파구 가락동 111-13,로즈힐파크(A동),37.4921460966804,127.123094975312
서울특별시 중구 흥인동 119,동대문 와이즈 캐슬,37.5657536581952,127.015443726545
서울특별시 구로구 개봉동 335-1,동인,37.4938718727456,126.849080707963
서울특별시 서초구 반포동 60-4,반포미도,37.4999733384409,127.008705635951
서울특별시 성동구 하왕십리동 1071,왕십리자이,37.5615293048656,127.024651500492
서울특별시 동대문구 장안동 562,우성3차(562),37.5651211759854,127.069496856811
서울특별시 양천구 신정동 938-7,동원데쟈뷰,37.5267930299488,126.850010066997
서울특별시 성동구 성수동2가 286,우방2,37.5486617968778,127.05148128679
서울특별시 영등포구 영등포동8가 51-1,영등포메이준2011,37.5269750350024,126.905902161423
서울특별시 마포구 성산동 601,성산월드타운대림,37.568594632553,126.908363510664
서울특별시 중랑구 신내동 783,성원,37.6059761741832,127.09472455776
서울특별시 도봉구 방학동 730,극동아파트,37.6644194627505,127.026994308192
서울특별시 관악구 신림동 551-9,신림2차현대,37.4844285452065,126.908598694126
서울특별시 강서구 화곡동 957-1,근상프리즘(957-1),37.5507605112802,126.85243857964
서울특별시 은평구 갈현동 537,갈현동현대,37.6219704228009,126.913971706642
서울특별시 노원구 월계동 383-40,성북맨션,37.6225335741487,127.060418607051
서울특별시 양천구 신월동 533-1,금용,37.5205681244283,126.842417546995
서울특별시 성북구 길음동 1280-1,길음뉴타운3단지푸르지오,37.6100441909211,127.01622347427
서울특별시 노원구 중계동 445,염광,37.6561110933603,127.072595026681
서울특별시 구로구 구로동 770-8,(770-8),37.4882271626412,126.888327637604
서울특별시 노원구 월계동 949,꿈의숲 SK VIEW,37.6220051183575,127.053173730089
서울특별시 중랑구 면목동 472-8,아람플러스,37.5808876739048,127.089807673098
서울특별시 강서구 등촌동 662-3,신송타워,37.5585028516812,126.847811653783
서울특별시 광진구 광장동 137,다강리버빌,37.5485060865131,127.109815262218
서울특별시 영등포구 양평동3가 90-1,거성파스텔,37.5314273419218,126.892011715654
서울특별시 종로구 명륜1가 23,건양하늘터,37.587928390347,126.997840959777
서울특별시 관악구 신림동 721-2,건영2,37.4717994044949,126.917717982401
서울특별시 광진구 구의동 631-1,현대프라임,37.5369576884242,127.096536670188
서울특별시 강동구 길동 346-1,효성노바,37.5418080974732,127.143099591505
서울특별시 마포구 노고산동 107-36,현대벤처빌,37.553555553783,126.936799599138
서울특별시 강남구 삼성동 50,현대힐스테이트 2단지,37.5147315113728,127.051739053534
서울특별시 중랑구 망우동 495,한일써너스빌리젠시2단지,37.5974663223384,127.094160266661
서울특별시 용산구 문배동 11-34,G&P용산파크,37.5377859849357,126.969450401785
서울특별시 마포구 공덕동 43,공덕2삼성래미안,37.5515726540579,126.958860898711
서울특별시 중랑구 중화동 450,한신1차,37.5970090851956,127.082070702444
서울특별시 노원구 월계동 803-1,극동,37.6295489650291,127.045940946278
서울특별시 동작구 본동 148-2,극동강변,37.5116540045705,126.952014044645
서울특별시 강서구 내발산동 717-20,강성레스빌,37.5498723449832,126.834586543394
서울특별시 영등포구 여의도동 43-4,롯데캐슬아이비,37.5202061193308,126.931800002781
서울특별시 강동구 길동 388-5,메트로아파트,37.5374765292178,127.138885220398
서울특별시 강서구 화곡동 928-25,로얄홈타운(102동),37.5287577475777,126.840716336833
서울특별시 강남구 개포동 185,개포주공 6단지,37.4891406792843,127.070871480537
서울특별시 서초구 잠원동 42-13,대우아이빌,37.5114116735709,127.018307020078
서울특별시 서대문구 홍은동 186-22,서강1차(1동),37.594720782248,126.934566612788
서울특별시 송파구 잠실동 22,리센츠,37.516733284228,127.089889095677
서울특별시 성북구 삼선동2가 425,삼선푸르지오,37.5841773524262,127.012618582669
서울특별시 도봉구 창동 581-4,청하아파트A동,37.6395666992098,127.038262145447
서울특별시 중랑구 면목동 1505,리치카운티,37.5899098441801,127.085204234465
서울특별시 용산구 보광동 151,리버빌(삼성),37.5240693901126,127.001282735069
서울특별시 용산구 도원동 3-4,제일1,37.5391219203846,126.958072757571
서울특별시 동대문구 전농동 690,래미안 크레시티,37.5755060418781,127.049695860484
서울특별시 양천구 신월동 1053,수명산SKVIEW,37.5440629077112,126.829343509089
서울특별시 강서구 염창동 66-9,염창동한강우성,37.5555476367,126.870435711689
서울특별시 관악구 신림동 551-42,동훈CDI,37.4847472628249,126.90957576652
서울특별시 구로구 고척동 321,우성꿈동산,37.5032743998746,126.865958097489
서울특별시 구로구 구로동 745-73,송림빌라,37.4868400228174,126.886022740875
서울특별시 강서구 방화동 182-44,양진마니아,126.8186548,37.5716823
서울특별시 금천구 시흥동 1008,금강,37.4632371066196,126.908072324465
서울특별시 마포구 서교동 458-6,에덴지우,37.5568043046582,126.914888930043
서울특별시 강서구 화곡동 24-130,신원2차(24-130),37.5458493182752,126.84571554175
서울특별시 중랑구 상봉동 499,건영캐스빌,37.6027047277333,127.091465865252
서울특별시 영등포구 여의도동 47,여의도자이,37.5181172905531,126.925195988034
서울특별시 서대문구 연희동 75-1,동도아카데미하우스3차,37.5738739516026,126.936690512891
서울특별시 성북구 하월곡동 219,동신,37.6045941277759,127.034545440189
서울특별시 영등포구 문래동6가 38-1,베어스타운,37.5189942661867,126.884795046378
서울특별시 양천구 목동 933,삼익,37.5225865099354,126.876366110642
서울특별시 송파구 송파동 58-4,레이크해모로,37.5113681160421,127.108804737854
서울특별시 강서구 방화동 814,방화5,37.5768038501964,126.810286852537
서울특별시 서대문구 현저동 1019,독립문파크빌,37.5749854476653,126.951168789689
서울특별시 구로구 개봉동 480,현대홈타운,37.4920422788882,126.86073736772
서울특별시 성동구 옥수동 4,현대,37.5433496006445,127.019302444208
서울특별시 마포구 현석동 223,반도유보라아일랜드,37.5420299754485,126.934479168438
서울특별시 서초구 서초동 1316-31,밀라텔쉐르빌,37.4986788720135,127.025041898185
서울특별시 종로구 인의동 48-2,효성쥬얼리시티,37.5717676404547,126.999273268519
서울특별시 강서구 방화동 863,마곡현대아파트,126.8196185,37.5730255
서울특별시 노원구 중계동 366,라이프,37.6511079247726,127.079599122393
서울특별시 광진구 자양동 855,이튼타워리버3차,37.532681666917,127.067878953418
서울특별시 은평구 구산동 213-4,새천년구산2차,37.6124676913018,126.911638858639
서울특별시 동작구 흑석동 28,한강현대,37.5067786538055,126.968934187019
서울특별시 구로구 개봉동 175-8,청실,37.4954039270721,126.859741653028
서울특별시 용산구 이촌동 415,한강(대우),37.5221513034071,126.970663574293
서울특별시 동대문구 장안동 371-1,장안삼성쉐르빌,37.5714380427267,127.070127915974
서울특별시 양천구 신월동 110-1,은성,37.5324309410732,126.833462347009
서울특별시 송파구 거여동 127-1,팰리스힐,37.4982333580148,127.143705098324
서울특별시 강동구 성내동 13-15,동남드림빌,37.536580029185,127.127714925359
서울특별시 성동구 성수동2가 279-50,대우1,37.5454284648551,127.065339810631
서울특별시 성북구 종암동 134,래미안라센트,37.5994272269852,127.039673839367
서울특별시 송파구 문정동 74,동부브리앙뜨1,37.4802528388247,127.12596018336
서울특별시 서초구 잠원동 31-14,대주피오레아파트,37.5129315892231,127.017024733794
서울특별시 도봉구 방학동 740,동양크레오아파트,37.6640293648352,127.030576327949
서울특별시 마포구 상암동 1660,상암월드컵파크7단지,37.5827563946262,126.882098813336
서울특별시 강남구 도곡동 933,도곡쌍용예가,37.48761945292,127.038197177163
서울특별시 동대문구 전농동 6,전농우성,37.5773472429026,127.064386983555
서울특별시 성북구 삼선동3가 116,삼선에스케이뷰,37.588018425539,127.012141205028
서울특별시 도봉구 쌍문동 729,브라운스톤쌍문,37.6472095736282,127.02980853846
서울특별시 은평구 응암동 117-54,삼흥리치,37.5967707838089,126.919382941896
서울특별시 관악구 신림동 1695,동부,37.4815026955626,126.928750419813
서울특별시 성동구 금호동4가 1250,롯데,37.5467697240475,127.016811877112
서울특별시 강남구 신사동 658,로데오현대,37.5266478506594,127.037303318538
서울특별시 강남구 대치동 891-6,테헤란로대우아이빌(891-6),37.5056919892348,127.054183199967
서울특별시 동작구 흑석동 10,명수대현대,37.507837224093,126.965608452953
서울특별시 도봉구 창동 380,창동주공4단지,37.6446272229525,127.047077650772
서울특별시 서대문구 홍제동 294-36,원일,37.5907403245127,126.942411843633
서울특별시 관악구 신림동 1694,신림현대,37.4746265193834,126.933804917074
서울특별시 마포구 성산동 446,성산시영(선경),37.5697322900238,126.903135454197
서울특별시 서초구 방배동 845-5,포렛빌,37.4926079942098,126.997550607148
서울특별시 영등포구 영등포동7가 46-1,경남아너스빌,37.524463518615,126.903148310077
서울특별시 강동구 길동 373-7,신암,37.5399557178703,127.136802543382
서울특별시 동대문구 장안동 567,신일해피트리2차(567),37.5640778433071,127.06354318877
서울특별시 강남구 논현동 195-1,e-편한세상,37.5067377896607,127.029135069693
서울특별시 관악구 신림동 1693,국제산장,37.4613351494786,126.927479872415
서울특별시 강동구 천호동 447-17,강동역신동아파밀리에,37.5366048791746,127.133115595362
서울특별시 구로구 고척동 76-55,"우성,현대아파트",37.4985773919649,126.863149147466
서울특별시 중랑구 면목동 1526,남청파인힐(101동),37.5883022730701,127.090908504056
서울특별시 송파구 장지동 835,송파파인타운2단지,37.4835171379025,127.13130638729
서울특별시 송파구 거여동 362,현대1차,37.4936148255753,127.141068384979
서울특별시 노원구 공릉동 741,현대성우아파트,37.6267191434676,127.077475137063
서울특별시 노원구 중계동 49,현대그린,37.6468125009299,127.083998288511
서울특별시 송파구 거여동 44,현대2차,37.4947593188475,127.146517453377
서울특별시 양천구 신월동 123-5,환희,37.5311062659812,126.834985393673
서울특별시 노원구 중계동 577,현대1(4차),37.6486533511859,127.084808068228
서울특별시 노원구 공릉동 111,화랑타운아파트,37.6230767984832,127.089350927229
서울특별시 광진구 광장동 577,현대파크빌,37.5433581625122,127.101744170173
서울특별시 노원구 상계동 1283,성원상떼빌,37.66033010225,127.065871725591
서울특별시 서초구 우면동 773,서초힐스,37.4576052707213,127.017570531118
서울특별시 동작구 신대방동 565,우성1,37.4910969139998,126.911813692107
서울특별시 영등포구 양평동6가 101,선유도삼성홈타운,37.5436690915877,126.888758266072
서울특별시 마포구 성산동 597,성산동성,37.5646458346416,126.905725991837
서울특별시 강남구 역삼동 711-3,역삼자이,37.500962635548,127.044168622231
서울특별시 서대문구 연희동 723-9,홍연(723-9),37.5765868078522,126.932396941896
서울특별시 노원구 월계동 929,현대,37.619379129478,127.058263354527
서울특별시 서대문구 홍제동 157-3,홍제그린,37.5854155984982,126.945946557797
서울특별시 강동구 둔촌동 546,신성둔촌미소지움1,37.5276463957348,127.142547152953
서울특별시 서대문구 연희동 745,연희자이엘라,37.5640636580947,126.928064959316
서울특별시 강북구 수유동 205,수유벽산1차,37.6426557894829,127.01963902071
서울특별시 용산구 문배동 3-3,이안용산프리미어,37.5385969340715,126.970349257166
서울특별시 도봉구 창동 826,북한산한신휴플러스,37.6556525588698,127.042804882242
서울특별시 양천구 신월동 1042,삼익플라주,37.5198356025156,126.842479719526
서울특별시 양천구 신월동 197-2,코아루1단지,37.5316227665795,126.829812640096
서울특별시 강서구 화곡동 409-248,"미성아파트,연립",37.5361828454452,126.845290915658
서울특별시 서대문구 홍제동 20-11,로얄,37.5832850061273,126.95064586122
서울특별시 마포구 아현동 777,마포래미안푸르지오4단지,37.5524339233654,126.95422378666
서울특별시 노원구 하계동 251,하계1청구,37.638126673285,127.071678046968
서울특별시 마포구 도화동 547,도화현대,37.5399016047307,126.955738152741
서울특별시 양천구 신월동 1007-11,청송,37.5163406106412,126.839333330043
서울특별시 중랑구 면목동 1514,풍림,37.5912130601645,127.072200413223
서울특별시 강북구 번동 136,번동솔그린,37.6266916218151,127.039061654283
서울특별시 구로구 오류동 345,동선,37.4936520256099,126.839508707259
서울특별시 성동구 홍익동 366,주암해븐,37.5660522093028,127.031161607599
서울특별시 노원구 중계동 360-2,청구3,37.6503840349218,127.074984978156
서울특별시 동작구 상도동 413,삼익,37.4973902075154,126.944257806099
서울특별시 서초구 우면동 764,계룡리슈빌 S,37.4564477478347,127.016254660862
서울특별시 강동구 천호동 414,두산위브센티움,37.5394018417027,127.1269894743
서울특별시 성동구 응봉동 15,대림강변,37.5543691154446,127.034875565118
서울특별시 서대문구 북가좌동 453,DMC현대아파트,37.5767207624417,126.908206952284
서울특별시 송파구 문정동 19,문정대우푸르지오,37.4869810920009,127.127244307271
서울특별시 관악구 봉천동 1712,관악드림(동아),37.4898474387668,126.952985510916
서울특별시 도봉구 쌍문동 731,e편한세상,37.6499814851783,127.027430789794
서울특별시 은평구 역촌동 45-30,디케이,37.6061068554282,126.914654983865
서울특별시 구로구 개봉동 470,삼환,37.4950348315458,126.854710644734
서울특별시 강북구 수유동 553-61,극동,37.6419553058077,127.011095453075
서울특별시 구로구 구로동 752-15,(752-15),37.488403045097,126.887953107197
서울특별시 강동구 천호동 570,강변그대가갤럭시,37.5469521934965,127.122574200211
서울특별시 강동구 길동 358-3,다성팰리스,37.5396800847761,127.142231854944
서울특별시 동대문구 장안동 344-2,다우하임,37.5711203676616,127.072046874058
서울특별시 송파구 거여동 290,거여1단지,37.4918160317756,127.144296521827
서울특별시 노원구 월계동 925,대동,37.621716014873,127.060950785003
서울특별시 구로구 오류동 338,동부골든,37.4999652512578,126.841353368958
서울특별시 영등포구 대림동 993-8,무림,37.4875711274902,126.903226601059
서울특별시 동대문구 전농동 645-2,동아,37.5753105451014,127.045864474612
서울특별시 구로구 오류동 335,금강,37.4937908051943,126.848184484696
서울특별시 강서구 내발산동 756,마곡수명산파크7단지,37.5476628719782,126.821917682228
서울특별시 서대문구 홍은동 265-293,나눔스타빌,37.5863645362601,126.934090591326
서울특별시 강남구 수서동 712,수서한아름,37.4902172303572,127.103957177072
서울특별시 서초구 서초동 1508-39,갤러리하우스,37.486936701838,127.006790866709
서울특별시 강동구 성내동 443-24,오륜하이츠,37.5239669486992,127.132109735868
서울특별시 마포구 망원동 518,신부파스카5차,37.5620700398545,126.902040479508
서울특별시 송파구 신천동 11-10,잠실아이스페이스,37.5167525460808,127.105490937496
서울특별시 강동구 길동 360-5,태성,37.5389478487831,127.144158624687
서울특별시 성북구 장위동 68-1014,코코아파트,37.6128858158096,127.050183506015
서울특별시 구로구 개봉동 476,한마을,37.4963730035523,126.863082153299
서울특별시 강동구 둔촌동 611,한솔솔파크,37.5335274871906,127.147904330093
서울특별시 노원구 공릉동 91,청솔아파트8,37.6236504542283,127.085958412012
서울특별시 은평구 진관동 140,폭포동4단지힐스테이트(408~422동)BL3-9,37.6282682010033,126.935544079171
서울특별시 영등포구 문래동3가 76-1,국화맨션,37.5157785131531,126.892358225379
서울특별시 은평구 진관동 60,은평뉴타운솔하임,37.6392342317325,126.917530394384
서울특별시 동작구 상도동 521,포스코더샵,37.5020189232317,126.944784995917
서울특별시 노원구 하계동 273,장미(시영6),37.6330646443357,127.06712319369
서울특별시 서대문구 홍은동 454,극동,37.6018450906982,126.95067516322
서울특별시 광진구 군자동 99,일성파크,37.5517127888261,127.072672678034
서울특별시 도봉구 창동 316,창동주공2단지,37.6530233936744,127.042328556896
서울특별시 강남구 청담동 122-35,청담 신원아침도시마인,37.526439666489,127.049680036198
서울특별시 중구 신당동 844,남산타운,37.5471505540187,127.005706247221
서울특별시 도봉구 창동 819,태영데시앙,37.6432046774836,127.032943371392
서울특별시 서대문구 홍은동 440-3,풍림1차,37.5946836916886,126.942404162372
서울특별시 구로구 고척동 269-1,개봉청구,37.5019571115168,126.85111989135
서울특별시 강남구 논현동 221-7,한양수자인어반게이트,37.5095984751871,127.033566582089
서울특별시 강동구 성내동 30-2,현대,37.5351542701514,127.127145762546
서울특별시 동대문구 이문동 225,대림e-편한세상,37.6049031022538,127.063706436409
서울특별시 구로구 고척동 337,한일유앤아이,37.5082177998099,126.852026637597
서울특별시 중랑구 신내동 317,데시앙,37.6097690028367,127.098976905071
서울특별시 강동구 길동 470,현대1,37.5363853348314,127.147066029814
서울특별시 서대문구 홍제동 24-16,동양드림,37.5830373329846,126.950454464774
서울특별시 동작구 신대방동 720,보라매 e편한세상,37.4957731735095,126.928979767472
서울특별시 노원구 상계동 757,한양,37.6505208152252,127.067349672237
서울특별시 송파구 방이동 48-5,현대주상복합,37.5154937300715,127.113299840522
서울특별시 성동구 성수동2가 835,롯데캐슬파크,37.5467864846037,127.055595974906
서울특별시 금천구 독산동 1140,독산동중앙하이츠빌,37.4653308234224,126.888536683719
서울특별시 마포구 대흥동 803,동양엔파트,37.5475755253717,126.940592727524
서울특별시 구로구 구로동 1280,한신휴플러스(1280-0),37.4884700177382,126.890773027393
서울특별시 영등포구 당산동 374,래미안당산1차,37.5348525878631,126.905126744443
서울특별시 성동구 용답동 252,덕현해밀,37.5646180693571,127.053176377797
서울특별시 강동구 성내동 419-13,동아1,37.5287436455723,127.13263891058
서울특별시 강남구 논현동 58-2,마일스디오빌,37.5138611699241,127.02897846584
서울특별시 영등포구 영등포동 647,영등포푸르지오,37.5117542837524,126.902325704642
서울특별시 금천구 독산동 1135,백운,37.4646299258239,126.893119310387
서울특별시 강동구 암사동 509,선사현대아파트,37.5534474873056,127.125660013035
서울특별시 은평구 대조동 9-18,모아아파트(B동),37.6103643550437,126.927980635034
서울특별시 구로구 신도림동 637,우성3,37.5130299633033,126.884495652664
서울특별시 은평구 대조동 231,삼성타운,37.6095200026749,126.921700201605
서울특별시 관악구 신림동 1736,신림2차푸르지오,37.4610652506245,126.91987541193
서울특별시 성북구 안암동3가 135,삼익,37.5818354006171,127.024613701527
서울특별시 강남구 대치동 890-54,선릉역 풍림아이원레몬,37.5041813924961,127.0515006041
서울특별시 영등포구 신길동 4938,신길동자이,37.5068354822382,126.916746469094
서울특별시 종로구 명륜2가 237,아남3,37.5859646059047,127.000230514994
서울특별시 노원구 중계동 589,신일,37.6584690001803,127.074842153869
서울특별시 강동구 성내동 590,성내동삼성아파트,37.5320738331874,127.126228075467
서울특별시 서초구 서초동 1583-10,서초아트자이,37.4859515294058,127.011561022005
서울특별시 영등포구 대림동 650,성원(650),37.5043812578364,126.896796990699
서울특별시 도봉구 쌍문동 73,경남,37.6547735244075,127.034685284425
서울특별시 중구 신당동 160-5,신당아르브,37.5649742650674,127.023319283742
서울특별시 노원구 중계동 580,성원1,37.6499764090371,127.069118959728
서울특별시 광진구 화양동 113-1,광진코지웰,37.547068014965,127.07184990385
서울특별시 강동구 성내동 164-1,씨제이나인,37.5359460061913,127.131238839368
서울특별시 은평구 신사동 241,양지파크,37.5974613052739,126.906442046857
서울특별시 송파구 방이동 51-4,올림픽카운티,37.5148889925719,127.114590891857
서울특별시 중구 중림동 149,성요셉,37.5591934088751,126.966980133221
서울특별시 영등포구 영등포동8가 91,당산푸르지오,37.5311883385355,126.906066799795
서울특별시 강동구 둔촌동 426,세양청마루,37.5332516390671,127.140796687713
서울특별시 서초구 양재동 312-3,서초파크빌,37.4716594860945,127.040717574246
서울특별시 노원구 공릉동 404-3,건영아파트,37.6244157870548,127.071453163423
서울특별시 구로구 구로동 1267,신도림태영타운,37.5062344102877,126.889103370184
서울특별시 성동구 행당동 147,서울숲삼부아파트,37.5592483612854,127.037851167361
서울특별시 강북구 미아동 311-10,월드빌라(311-10),37.6229814469115,127.024731475009
서울특별시 중랑구 신내동 786,동성타워프라자,37.6080276018454,127.097205473343
서울특별시 중랑구 망우동 583,중랑숲리가,37.6017262522479,127.104896125324
서울특별시 양천구 목동 771-31,인우,37.53467497688,126.868852656938
서울특별시 노원구 월계동 944,풍림아이원,37.6164824350017,127.065675585768
서울특별시 구로구 고척동 334,벽산,37.4944598712943,126.864387662637
서울특별시 동대문구 전농동 155,전농동삼성래미안,37.58280297036,127.055452585633
서울특별시 금천구 시흥동 5-13,삼익,37.4637563637838,126.909126305021
서울특별시 도봉구 쌍문동 285-5,동익미라벨,37.650642445811,127.025000709062
서울특별시 은평구 응암동 761,백련산힐스테이트3차,37.5884566532295,126.924767525406
서울특별시 노원구 월계동 922,서광,37.6236591971724,127.063970855033
서울특별시 도봉구 쌍문동 388-33,한양1,37.6451056858146,127.029811323587
서울특별시 노원구 상계동 1320,미라보(성림),37.6722436801599,127.081579029371
서울특별시 성동구 금호동4가 180,삼산금호,37.5474369348685,127.024861638978
서울특별시 강남구 압구정동 436,"현대10차(201,202동)",37.5310864337439,127.025108957864
서울특별시 동대문구 장안동 373-3,현대썬앤빌601,37.569150253828,127.06933454445
서울특별시 도봉구 창동 451,한신APT,37.638753432973,127.04105377032
서울특별시 용산구 후암동 244-99,화인,37.5485969292049,126.979109431185
서울특별시 동대문구 청량리동 234-2,현대,37.5841917064823,127.045696927384
서울특별시 금천구 시흥동 961-4,메르시 대신아파트,37.4388976109541,126.905029588367
서울특별시 서초구 서초동 1527-1,보미리즌빌,37.4846234391975,127.008408298884
서울특별시 동작구 상도동 531,힐스테이트 상도 센트럴파크,37.4967899772343,126.951667453182
서울특별시 종로구 행촌동 41-1,대성아파트,37.5727073548783,126.962448792536
서울특별시 도봉구 도봉동 555,서울가든,37.6869159766475,127.041152294922
서울특별시 노원구 상계동 995,한신4차,37.6716948798078,127.058365668044
서울특별시 성동구 금호동4가 1507,브라운스톤금호,37.547255958703,127.015755062829
서울특별시 노원구 상계동 135,한신1차,37.6658429810022,127.068944051263
서울특별시 강남구 도곡동 527,도곡렉슬,37.4942068396456,127.049734781209
서울특별시 노원구 공릉동 742,효성아파트,37.6212874655188,127.087753447955
서울특별시 금천구 가산동 237-81,드림케슬3차,37.4724957171418,126.889655282518
서울특별시 동대문구 휘경동 78,롯데,37.5911848350701,127.06396320352
서울특별시 동대문구 용두동 792,래미안 허브리츠,37.5754722861294,127.037112346823
서울특별시 구로구 궁동 112-10,호수1차A동,37.5001907199169,126.830105886394
서울특별시 종로구 창신동 578-5,동대문맨션,37.5723822385791,127.011010638393
서울특별시 동대문구 장안동 569,현대홈타운2차,37.5688266327284,127.071720138684
서울특별시 구로구 개봉동 473,상우,37.4939270516806,126.860472087125
서울특별시 중랑구 중화동 208-4,범양프레체,37.5945315127732,127.075917984894
서울특별시 양천구 목동 729-12,목동휘버스I,37.537568458232,126.864629723604
서울특별시 동작구 사당동 1037-9,삼성휘버스,37.4780308953303,126.977498476639
서울특별시 용산구 한강로1가 50-1,용산파크자이,37.5366835309492,126.972808655459
서울특별시 은평구 증산동 244,DMC우방,37.5814851103662,126.902347326188
서울특별시 영등포구 대림동 1122,신대림자이2단지,37.4859533928289,126.902162791984
서울특별시 마포구 공덕동 457,공덕3삼성래미안,37.5491930367086,126.951525112421
서울특별시 서초구 서초동 1487-63,서초1차e-편한세상,37.4813751470729,127.006604037927
서울특별시 성북구 안암동1가 361,안암동삼성래미안,37.5892181522801,127.023206034954
서울특별시 양천구 신정동 201-1,세양청마루2차주상복합,37.508287498257,126.864535471682
서울특별시 송파구 가락동 138,가락미륭아파트,37.493185691189,127.128911783139
서울특별시 송파구 가락동 120-4,가락우성2,37.4923059180233,127.125254461059
서울특별시 강북구 수유동 729,수유현대,37.6454358502605,127.018624497272
서울특별시 성북구 종암동 104-1,종암에스케이,37.6008413496899,127.037976638554
서울특별시 송파구 잠실동 19,잠실엘스,37.5151252476966,127.078130036923
서울특별시 은평구 진관동 11,은평뉴타운상림마을(현대아이파크B-13),37.643204075778,126.929208795549
서울특별시 강동구 둔촌동 622-12,주풍그린빌라트,37.5330619738198,127.144823981835
서울특별시 동대문구 이문동 425,이문삼성래미안아파트,37.599611653472,127.056118907258
서울특별시 강동구 천호동 55-4,천호롯데아파트,37.541641261298,127.137849227643
서울특별시 관악구 신림동 1425-4,코스모그린,37.4874165339665,126.929468229467
서울특별시 동대문구 장안동 415-14,가우디캐슬,37.5625045383803,127.061818173127
서울특별시 송파구 방이동 212-8,코오롱아파트,37.509011455707,127.122596508904
서울특별시 도봉구 쌍문동 153,기용,37.6542755261171,127.034464185907
서울특별시 구로구 구로동 749-30,(749-30),37.4876410905423,126.887507954273
서울특별시 관악구 봉천동 179-58,낙성대현대아파트,37.4736559155749,126.965721117841
서울특별시 강동구 길동 349-1,다성이즈빌(349-1),37.5407002551692,127.142556499397
서울특별시 양천구 목동 777-20,다온숲,37.5330333292225,126.867217612469
서울특별시 관악구 봉천동 893-12,마에스트로캠퍼스타운,37.48213912809,126.947212611798
서울특별시 강서구 마곡동 751,마곡엠벨리(15단지),37.5574187175366,126.827029271898
서울특별시 종로구 창신동 23-76,브라운스톤창신,37.5773757358987,127.015049677272
서울특별시 성북구 동소문동7가 75-10,샤인힐,37.5968267878491,127.013038446083
서울특별시 노원구 상계동 670,상계주공9(고층),37.6646207331385,127.059824240304
서울특별시 성북구 삼선동2가 420,삼선현대힐스테이트,37.5826745602455,127.014413798749
서울특별시 구로구 고척동 330,삼익(1단지),37.5087128866768,126.853315030716
서울특별시 마포구 상암동 1637,상암월드컵파크2단지,37.5744924524579,126.89107201713
서울특별시 양천구 목동 755-1,목4현대,37.5382092839506,126.870034060531
서울특별시 강서구 화곡동 1165,강서힐스테이트,37.5475461876358,126.837207520139
서울특별시 관악구 신림동 569-5,늘푸른(569-5),37.4827767106544,126.907535986246
서울특별시 강서구 가양동 1459,동신대아,37.5712750358337,126.842277493004
서울특별시 금천구 시흥동 960-5,거상센스빌(960-5),37.4393378019322,126.905761373624
서울특별시 강서구 가양동 1495,한보구암마을,37.5684141695291,126.848657302795
서울특별시 중랑구 면목동 1532,대명미르테,37.5896790318153,127.077731791344
서울특별시 영등포구 영등포동7가 202,브라운스톤,37.524241646393,126.911351035713
서울특별시 서초구 서초동 1687,유원서초,37.4959475181655,127.018985138118
서울특별시 강남구 대치동 1029,대치 SK VIEW,37.4959078867351,127.060999811122
서울특별시 용산구 문배동 24-8,프라임팰리스,37.5366912041912,126.969546569074
서울특별시 용산구 이태원동 730,이태원(이테크빌),37.5332213655067,126.992676123583
서울특별시 중구 충무로5가 90,충무로헤센스마트,37.561326262637,126.998598237823
서울특별시 종로구 청운동 56-45,청운현대,37.5861486417138,126.966930414705
서울특별시 마포구 망원동 422-12,청화,37.5574914304876,126.903554775651
서울특별시 노원구 월계동 926,한일1,37.6220625118578,127.06134243043
서울특별시 송파구 장지동 901,위례24단지(꿈에그린),37.476865039892,127.138216293782
서울특별시 은평구 응암동 738,해태드림타운,37.5990780911071,126.916985213035
서울특별시 중구 장충동2가 193-29,장충,37.5592564889831,127.001675390514
서울특별시 성동구 옥수동 528-1,옥수파크힐스 117동~125동,37.5472989077685,127.01218936757
서울특별시 서대문구 홍제동 459,홍제원현대(459-0),37.5888076794664,126.948829614377
서울특별시 중구 인현동2가 192-30,신성상가,37.563546252348,126.995814962096
서울특별시 영등포구 양평동3가 79-4,현대2,37.5324321877995,126.895879717489
서울특별시 강서구 화곡동 1145,우장산롯데캐슬,37.5563945811198,126.849546722022
서울특별시 노원구 공릉동 230,현대아파트,127.0836613,37.6262521
서울특별시 중랑구 신내동 656,화성두산아파트,37.6138589784362,127.094322735978
서울특별시 광진구 구의동 662,아차산한라아파트,37.5538354352314,127.09734621926
서울특별시 송파구 문정동 146,세양청마루,37.4926832255276,127.136975791889
서울특별시 동대문구 회기동 65,신현대,37.5901684571627,127.05156387144
서울특별시 송파구 장지동 833,송파파인타운1단지,37.4862288583572,127.134547727039
서울특별시 성동구 행당동 344,신동아,37.554105048915,127.03195392433
서울특별시 용산구 문배동 11-10,용산KCC웰츠타워,37.5377465400136,126.96883309004
서울특별시 노원구 상계동 330-29,소담빌,37.6564361884886,127.06612372319
서울특별시 송파구 가락동 96-1,우성,37.4968570896254,127.117711388833
서울특별시 구로구 오류동 340,삼천리,37.4928694986504,126.839572801145
서울특별시 서대문구 남가좌동 135-6,엠화일에이동,37.5716830212058,126.920352477186
서울특별시 강동구 성내동 199-18,아이퍼스트빌,37.5342606675839,127.134537574134
서울특별시 송파구 가락동 168-1,삼성프라자,37.4966369537461,127.135156924941
서울특별시 성동구 금호동2가 1,신금호파크자이,37.5562788411556,127.018152303
서울특별시 중랑구 신내동 591,동성4,37.6068884470407,127.097027772006
서울특별시 강동구 명일동 44,신동아,37.5538244191386,127.151914012333
서울특별시 도봉구 쌍문동 713,에덴,37.6607107413399,127.039772503083
서울특별시 노원구 하계동 353,우방,37.6376987099634,127.076963099753
서울특별시 양천구 목동 763-1,목동성원,37.5356028781485,126.86995825220001
서울특별시 영등포구 대림동 785-1,현대1,37.5024902426287,126.895685171928
서울특별시 영등포구 양평동2가 23,벽산,37.5224140396106,126.883527783866
서울특별시 구로구 신도림동 646,대림e-편한세상4,37.5093548780231,126.886561386049
서울특별시 서초구 잠원동 63-34,한신로얄,37.5132017944915,127.008853083538
서울특별시 구로구 구로동 1287,구로지웰,37.4906747727463,126.886837616352
서울특별시 서대문구 충정로2가 185-15,현대,37.5636879956614,126.963204308018
서울특별시 은평구 대조동 172-75,호림리슈리안,37.6092795956577,126.920720912432
서울특별시 성동구 하왕십리동 1052,금호베스트빌,37.5612312466825,127.025952317395
서울특별시 중랑구 중화동 274-51,한영(101),37.6065141890726,127.082176614989
서울특별시 성북구 길음동 1278,길음동동부센트레빌(1278-0),37.6117749545603,127.023864959006
서울특별시 서대문구 홍은동 459,진흥,37.5799383125545,126.93253214162
서울특별시 중구 회현동1가 206,남산 SK LEADERS VIEW,37.5591253443035,126.980603849217
서울특별시 성북구 하월곡동 46-73,코업스타클래스,37.6017059749991,127.040579524379
서울특별시 강동구 암사동 459-1,다성이즈빌,37.554558597934,127.132339249504
서울특별시 중랑구 상봉동 63,건영2차아파트,37.6013911865577,127.096099061687
서울특별시 동대문구 장안동 346-1,태솔아파트3차,37.5692710967995,127.070969634209
서울특별시 관악구 신림동 1721,우정하이비전,37.4714301466898,126.929078207674
서울특별시 동대문구 답십리동 497-23,청계푸르지오시티,37.5689570546728,127.050579853883
서울특별시 강서구 등촌동 702,주공10,37.5630814838331,126.848895592409
서울특별시 관악구 신림동 86-3,청암두산위브센티움,37.4825754320038,126.930252917369
서울특별시 광진구 자양동 762,한라,37.5359272031596,127.069816767733
서울특별시 노원구 하계동 288,하계2현대,37.6451700974378,127.071116228435
서울특별시 강남구 도곡동 467,타워팰리스1,37.4880695220981,127.053483219997
서울특별시 강서구 염창동 270-1,태영,37.5530246776856,126.866724041912
서울특별시 은평구 구산동 147-46,푸른솔,37.6124523052453,126.908358310988
서울특별시 양천구 신정동 1281,푸른마을2,37.5135071526611,126.836066343644
서울특별시 양천구 목동 961,하이페리온2,37.5248304019543,126.87002254331
서울특별시 동대문구 답십리동 42,동답한신,37.5713911532894,127.063004129431
서울특별시 은평구 응암동 739,응암동금호,37.5994661259867,126.921971643797
서울특별시 중랑구 묵동 170-1,묵동자이(2단지),37.6138348860458,127.077545015528
서울특별시 강동구 암사동 508,삼성광나루,37.5541714614449,127.127237252962
서울특별시 구로구 구로동 1269,중앙하이츠(1269),37.4994627513942,126.880447055082
서울특별시 서대문구 홍은동 453-2,풍림2,37.5936393558826,126.943908224087
서울특별시 강동구 천호동 288-29,브라운스톤 암사아파트,37.5491960606802,127.129312254407
서울특별시 성동구 마장동 512-2,한건토파즈빌,37.568865554123,127.038536214138
서울특별시 마포구 망원동 513,상암마젤란21,37.5622804496363,126.902946125964
서울특별시 동작구 신대방동 395-66,보라매삼성쉐르빌,37.4914310798968,126.923417000996
서울특별시 노원구 중계동 359-1,주공5,37.6510358515074,127.075054984295
서울특별시 도봉구 쌍문동 195,청구,37.6592421730015,127.034828573365
서울특별시 중랑구 신내동 437,벽산,37.60296415945,127.099868188631
서울특별시 영등포구 영등포동5가 24,동남,37.5205974582229,126.905659835007
서울특별시 동대문구 답십리동 1002,청계한신휴플러스,37.5720742467292,127.047273509268
서울특별시 강서구 마곡동 717,마곡금호어울림,37.574441814534,126.837207289666
서울특별시 노원구 상계동 1282,상계2차중앙하이츠,37.654494616907,127.068103349446
서울특별시 서대문구 홍은동 465,HDX휴팰리스,37.595990927849,126.940027716879
서울특별시 관악구 봉천동 1719,관악동부센트레빌,37.4873001209776,126.950155935997
서울특별시 중구 흥인동 3-4,aaa,37.5674464828596,127.016527092399
서울특별시 강서구 염창동 281-22,염창1차한화꿈에그린,37.5484112603541,126.87289973366
서울특별시 송파구 송파동 166,가락삼익맨숀,37.5048868696507,127.122478363524
서울특별시 강동구 길동 400,길동우성,37.5377211919125,127.143374194802
서울특별시 은평구 역촌동 232,역촌센트레빌,37.6035646455654,126.905801470923
서울특별시 서초구 서초동 1509-1,서초한빛삼성,37.4881890139975,127.008194201279
서울특별시 동작구 노량진동 324,건영(103동-106동),37.5076264776599,126.949547851693
서울특별시 중구 신당동 850,신당푸르지오,37.5599823683376,127.019422404394
서울특별시 서대문구 홍제동 331,홍제현대,37.5899000753645,126.940985283729
서울특별시 금천구 독산동 965-1,예전이룸(965-1),37.476568992471,126.900502502374
서울특별시 중랑구 상봉동 484,"엘지, 쌍용아파트",37.6031903941314,127.088468055853
서울특별시 송파구 풍납동 511,송파현대힐스테이트,37.5308498276741,127.118304561274
서울특별시 노원구 상계동 1078,현대2차,37.671735799494,127.049890428436
서울특별시 양천구 신월동 514-3,해태,37.5215351590595,126.843221846869
서울특별시 성북구 하월곡동 88-957,성북힐스테이트(102동),37.6065361701432,127.029010983176
서울특별시 강서구 화곡동 46-212,밀레니엄,37.5451670979573,126.847810478548
서울특별시 서초구 방배동 844-27,롯데캐슬포레스트,37.4917103662829,126.995938269778
서울특별시 강동구 암사동 400,현대홈타운,37.5568885216039,127.13843707596
서울특별시 서초구 잠원동 54,미주파스텔,37.5173027060542,127.01107448217
서울특별시 은평구 구산동 199-25,구산,37.6128726589432,126.913426193205
서울특별시 용산구 효창동 3-3,효삼골드빌,37.5487250052679,126.962804616613
서울특별시 광진구 중곡동 191-77,중곡1단지,37.5663539967709,127.078973009835
서울특별시 노원구 상계동 694,임광,37.6609845717011,127.057983848414
서울특별시 강남구 도곡동 467-19,현대비젼21,37.4873386711834,127.05155394203
서울특별시 노원구 상계동 1068,중앙하이츠(5지역),37.6720692106334,127.052070829882
서울특별시 동대문구 제기동 892-66,현대,37.5804808327149,127.035616821712
서울특별시 은평구 응암동 123-25,자선메르시안102동(123-25),37.5954103308604,126.915705442646
서울특별시 용산구 이촌동 302-62,코스모스,37.5208473125687,126.968004947751
서울특별시 노원구 하계동 354,학여울청구,37.6372461774035,127.060865806768
서울특별시 관악구 신림동 1726,우정하이비전2,37.4707974304681,126.926963496421
서울특별시 강서구 화곡동 351-89,중앙화곡하이츠,37.536466772,126.843529234023
서울특별시 강동구 둔촌동 518-6,경방필하우스,37.5285253725464,127.138260761269
서울특별시 서대문구 남가좌동 386,DMC파크뷰자이3단지,37.5744019902031,126.917907814167
서울특별시 양천구 신월동 547-5,세아쎄닛빌,37.5181277248511,126.839514218314
서울특별시 용산구 한남동 263-10,성아1,37.5341988807655,127.008388065386
서울특별시 강남구 역삼동 656-31,역삼엔스위트102동,37.5067207625412,127.03883664685
서울특별시 성동구 성수동1가 710,LIG건영,37.5404656250355,127.044276890259
서울특별시 중랑구 신내동 799,광남,37.6075165021967,127.099865441235
서울특별시 강서구 방화동 796,신동아,37.5700781343589,126.816050500778
서울특별시 노원구 상계동 1299,양우,37.6560873853819,127.071136045782
서울특별시 동대문구 제기동 153,안암골벽산,37.5831469984959,127.03169971128
서울특별시 구로구 고척동 323,그랜드,37.507455048321,126.847452991041
서울특별시 영등포구 양평동3가 55-1,양평경남,37.5272095267926,126.888374310978
서울특별시 강서구 가양동 1490,가양도시개발9-2단지,37.5585550447206,126.863376121004
서울특별시 구로구 개봉동 488,영화아이닉스,37.4829862555133,126.849425855579
서울특별시 영등포구 신길동 496,길성그랑프리텔,37.4997492737871,126.918844904343
서울특별시 관악구 봉천동 1713,낙성대현대홈타운,37.4798859472233,126.963907514458
서울특별시 노원구 상계동 1277,수락한신,37.6741700814342,127.059744057308
서울특별시 구로구 구로동 1263,신도림롯데아파트,37.5043803735487,126.884825422545
서울특별시 양천구 신월동 1036,수명산롯데캐슬,37.5450807317902,126.828698001373
서울특별시 성동구 응봉동 100,대림(1차),37.5508015548469,127.032228979302
서울특별시 동작구 신대방동 717,신동아파밀리에,37.4916382065289,126.91471472409
서울특별시 서초구 양재동 6-31,미영(102),37.4822213953246,127.04122428632
서울특별시 송파구 신천동 7-14,더샵스타파크,37.516940130045,127.102633008407
서울특별시 강동구 둔촌동 545,둔촌하이츠,37.5291977320554,127.142179479429
서울특별시 양천구 신정동 1278,목동삼성,37.5150788692395,126.876418086086
서울특별시 송파구 오금동 160,삼성,37.4960617772219,127.139399350368
서울특별시 마포구 성산동 596,대원,37.5645480127325,126.91026887885
서울특별시 은평구 응암동 669-1,대주파크빌,37.5861456080931,126.923229496069
서울특별시 영등포구 문래동3가 54,문래자이,37.5168690843772,126.894855482888
서울특별시 구로구 구로동 120,대림우성2,37.4940160696255,126.893929736338
서울특별시 양천구 목동 539-4,목동효성,37.544001303357,126.876532625355
서울특별시 양천구 신월동 1028,대주파크빌,37.5145755882847,126.842847189903
서울특별시 은평구 응암동 109-22,드림캐시아2,37.5988033013638,126.920805634896
서울특별시 성북구 정릉동 1034,라온유,37.6032285064084,127.017866208389
서울특별시 구로구 구로동 1257,럭키,37.49154085489,126.893663774589
서울특별시 송파구 송파동 243,래미안송파파인탑,37.5029836751039,127.119488892903
서울특별시 양천구 신정동 314,목동신시가지8,37.5223402739432,126.867563264965
서울특별시 강남구 대치동 670,동부센트레빌,37.4914644228405,127.055641674701
서울특별시 동작구 상도동 535,두산위브트레지움2차,37.5043182643342,126.942466980966
서울특별시 마포구 대흥동 802,대흥동세양,37.5445556054461,126.944969203076
서울특별시 양천구 신정동 1198-23,대성유니드1차,37.5204581490004,126.848998104129
서울특별시 관악구 봉천동 941-2,삼성,37.4859793376563,126.94025721668
서울특별시 성동구 옥수동 561,래미안 옥수 리버젠,37.5438389184568,127.014348948586
서울특별시 양천구 신월동 1033,대성유니드,37.5201690561993,126.841128932034
서울특별시 강서구 염창동 258-1,동아3,37.5502517087995,126.877396858267
서울특별시 송파구 문정동 18,문정푸르지오,37.4867641985951,127.127597847225
서울특별시 강동구 명일동 358,명일동다성이즈빌아파트,37.551141201127,127.140832483508
서울특별시 양천구 신정동 1279,목동현대3차,37.5221332556567,126.87778960592
서울특별시 강서구 염창동 272-11,롯데캐슬,37.550592015032,126.869005951339
서울특별시 강동구 천호동 425-5,대우한강베네시티,37.540555377209,127.124975762766
서울특별시 마포구 도화동 555,한화오벨리스크,37.5399847863145,126.945447452979
서울특별시 영등포구 양평동5가 76,한신,37.5402803267019,126.891745831623
서울특별시 관악구 봉천동 1654-14,미래,37.4749932365695,126.969840119261
서울특별시 양천구 신정동 326,목동신시가지12,37.5120947920338,126.860291121004
서울특별시 송파구 송파동 33,호수임광,37.5103427659692,127.107137210321
서울특별시 마포구 공덕동 188-108,마포현대,37.5513941579218,126.950612577603
서울특별시 서초구 방배동 1010-1,방배임광,37.4764115275478,127.003554419879
서울특별시 서초구 서초동 1483-18,"더#오데움(101,102동)",37.4827244567719,127.009794245545
서울특별시 중랑구 신내동 618,동성3,37.6072532463627,127.09549515674
서울특별시 강서구 방화동 547-11,한오,37.5693164196886,126.808449913178
서울특별시 중랑구 신내동 788,동성5,37.6085248377366,127.099178773236
서울특별시 마포구 상암동 1743,상암월드컵파크12단지,37.5868307330562,126.88071335805
서울특별시 강서구 등촌동 561-1,대림e편한세상,37.5418983212315,126.862618864785
서울특별시 은평구 응암동 110-9,메트로럭스,37.5997123185996,126.919882555261
서울특별시 동대문구 제기동 1212,한신아파트,37.5883932941526,127.039218485863
서울특별시 양천구 목동 925,목동신시가지7,37.5252268436522,126.866390006625
서울특별시 성동구 성수동1가 656-320,동아,37.5440341715304,127.045338933792
서울특별시 성북구 동소문동7가 23,한신플러스C,37.5933032041957,127.011140425117
서울특별시 노원구 상계동 639,보람1단지,37.6644977270046,127.064483155729
서울특별시 은평구 대조동 9-46,미래하임(9-46),37.6100521306547,126.927194826029
서울특별시 마포구 신공덕동 167,대우메트로디오빌,37.5434778780948,126.952779970695
서울특별시 동대문구 답십리동 989-1,우성그린,37.5750621283917,127.066522402213
서울특별시 구로구 신도림동 647,대림e-편한세상5,37.5073792102051,126.880761857831
서울특별시 서초구 서초동 1685,삼풍아파트,37.5004532195354,127.015647626899
서울특별시 영등포구 신길동 4943,선원가와인,37.5110550416186,126.910668994183
서울특별시 동대문구 장안동 372-5,장안뉴시티,37.5700853011061,127.069955043285
서울특별시 용산구 이촌동 302-69,정우,37.5209189884576,126.96718795597
서울특별시 성동구 마장동 822,신성미소지움,37.568341418104,127.043293439902
서울특별시 성동구 성수동1가 718,트리마제,37.5392578661678,127.044671518265
서울특별시 강동구 천호동 19-1,우성,37.550113657363,127.139046726981
서울특별시 서초구 서초동 1568-3,서초캐슬,37.4908403080264,127.013276457021
서울특별시 구로구 개봉동 20-1,창동,37.5034198260166,126.842792314145
서울특별시 은평구 구산동 224,경남아너스빌,37.6047988625219,126.905402187471
서울특별시 구로구 고척동 320,센츄리,37.5049591740101,126.861878164061
서울특별시 용산구 청암동 181,GS자이,37.5350715443607,126.947642942696
서울특별시 구로구 오류동 44-10,시티월드,37.4943907298586,126.841018680923
서울특별시 성북구 석관동 10,두산,37.6137702863968,127.068980441185
서울특별시 구로구 구로동 1272,미래타워,37.4826840834852,126.899902506754
서울특별시 동대문구 용두동 29-1,리채,37.5756977673929,127.039180695667
서울특별시 강서구 마곡동 738,마곡엠밸리4단지,37.568908134597,126.824232519697
서울특별시 종로구 사직동 9,광화문풍림스페이스본(101동~105동),37.5746716527447,126.968429762772
서울특별시 서대문구 현저동 200,독립문극동(200-0),37.5719339049306,126.95831483956
서울특별시 성북구 돈암동 624,구현대,37.6014275245144,127.024800664049
서울특별시 서초구 반포동 54-5,반포두산힐스빌,37.5013533989068,127.009977285735
서울특별시 영등포구 대림동 1101-1,(1101-1),37.4869311222654,126.900598552049
서울특별시 노원구 상계동 749-5,상계주공4(고층),37.6498808620377,127.062236934343
서울특별시 강남구 도곡동 183,도곡현대힐스테이트101동,37.487712005537,127.045983751621
서울특별시 관악구 신림동 1706,금호2,37.4682378425488,126.944342536615
서울특별시 강서구 가양동 1475,강변,37.564612123403,126.856278639847
서울특별시 노원구 상계동 463,상계신동아,37.6666304150038,127.066791736046
서울특별시 성동구 행당동 347,대림e-편한세상,37.556602469483,127.027520677046
서울특별시 강서구 등촌동 637-26,다울,37.5563769383272,126.859960751135
서울특별시 강북구 번동 656,번동금호어울림,37.6306779199444,127.035732526464
서울특별시 서대문구 홍은동 396-22,건우아트빌,37.5797337330172,126.929510182922
서울특별시 성북구 길음동 635-168,신안파크,37.6141052663502,127.015871658021
서울특별시 강서구 화곡동 924-10,스카이(924-10),37.5294986934098,126.841693823146
서울특별시 동작구 노량진동 325,신동아리버파크,37.5070717430905,126.945718197277
서울특별시 송파구 장지동 842,송파파인타운8단지,37.4796538239777,127.128078127392
서울특별시 동작구 노량진동 323,우성,37.5103042588159,126.946865796584
서울특별시 금천구 독산동 987-21,한아(987-21),37.4732434685483,126.899983605858
서울특별시 은평구 응암동 197-78,신동아,37.5971446532124,126.923655969125
서울특별시 광진구 화양동 234,화양현대,37.5444194877345,127.065895208197
서울특별시 양천구 신정동 883,심미에셈빌,37.5279445415474,126.859714008753
서울특별시 강남구 도곡동 467-17,타워팰리스2,37.4894573055974,127.053964659634
서울특별시 노원구 공릉동 90,청솔아파트9,37.6209312967361,127.084556592126
서울특별시 양천구 목동 962,트라팰리스웨스턴에비뉴,37.5260837006075,126.87035534357
서울특별시 양천구 신정동 1317,이펜하우스4단지,37.5108510316658,126.83110409084
서울특별시 금천구 시흥동 952-7,칠성(952-7),37.4417242368779,126.905770020073
서울특별시 구로구 고척동 227-1,한성,37.508200103954,126.85337043612
서울특별시 관악구 남현동 1053-5,풍산캐슬,37.4747195267309,126.971730902783
서울특별시 강동구 천호동 46-5,우정아파트,37.5441723061507,127.141238843194
서울특별시 도봉구 도봉동 654,동아에코빌,37.6819276903659,127.046998391263
서울특별시 강남구 청담동 134-38,청담자이,37.5241014728573,127.057249781197
서울특별시 서초구 우면동 67,한라,37.4710278919898,127.025981917687
서울특별시 강동구 성내동 601,하나플러스2,37.5253854753211,127.131877270731
서울특별시 은평구 불광동 634,은혜 스카이빌 아파트,37.6184428796638,126.931291391416
서울특별시 성북구 동선동5가 69-1,트라움하임,37.5955517337659,127.017664854386
서울특별시 강남구 도곡동 467-29,타워팰리스3,37.4877632466167,127.052530150983
서울특별시 중구 신당동 333-42,진달래,37.5565457376024,127.014031778478
서울특별시 구로구 오류동 46-1,이좋은집,37.4948295171349,126.842024178038
서울특별시 송파구 가락동 169-13,주성파크빌,37.4971855420965,127.135029222561
서울특별시 관악구 봉천동 1706,봉천우성,37.4841357625535,126.960607343765
서울특별시 도봉구 방학동 720-1,대상타운현대아파트,37.6651079698533,127.046910486399
서울특별시 강서구 방화동 168-38,한림리첸빌101동,126.8181675,37.5731461
서울특별시 서초구 방배동 1-45,리전트가든,37.4944148914977,126.995190995834
서울특별시 양천구 신월동 519-25,삼종레이빌102동,37.5210037034884,126.840763930178
서울특별시 강서구 염창동 257-4,리버펠리스4동,37.5504725455021,126.876965787619
서울특별시 송파구 오금동 29-5,오륜파크빌,37.5075576092618,127.131949276241
서울특별시 은평구 신사동 361,삼부,37.5957074100985,126.913495001001
서울특별시 성동구 성수동1가 706,쌍용,37.5492995938354,127.047888427301
서울특별시 강남구 신사동 626,리갈팰리스,37.5237486995211,127.03072000986
서울특별시 성동구 금호동4가 340,서울숲푸르지오,37.5438475070221,127.022764235413
서울특별시 은평구 역촌동 31-6,아그네스풍림아이원,37.6029593097591,126.918961673328
서울특별시 영등포구 신길동 4933,우성5,37.5067509124905,126.90308671235
서울특별시 은평구 증산동 202-7,명남태봉,37.5865023324689,126.907893209905
서울특별시 구로구 구로동 106-2,대림역포스큐,37.4981714698346,126.891995163467
서울특별시 강남구 도곡동 963,럭키(963),37.4915488149067,127.040954182934
서울특별시 강서구 화곡동 917-14,삼성다빈치(917-14),37.5294115990431,126.843815946633
서울특별시 양천구 신월동 1027,양천벽산블루밍2단지,37.5252664113935,126.838163229274
서울특별시 영등포구 영등포동1가 113-1,여의도시티아이,37.5175213972258,126.910712075567
서울특별시 동대문구 제기동 120-10,홍파,37.5868685614672,127.039972982555
서울특별시 용산구 원효로4가 178,강변삼성스위트,37.5339160142402,126.949302620967
서울특별시 송파구 석촌동 280-4,나래파크빌,37.5023907449201,127.106465608783
서울특별시 강서구 내발산동 733,내발산우신웨스트빌,37.5534609191989,126.838025438076
서울특별시 송파구 문정동 62-5,현대(62-5),37.4856961889676,127.125876153683
서울특별시 강동구 둔촌동 630,둔촌푸르지오,37.5341381859815,127.145070787029
서울특별시 동대문구 휘경동 43-66,휘경,37.5841814811829,127.066621429252
서울특별시 중랑구 상봉동 85-18,문수해오름,37.5939917148172,127.091325663009
서울특별시 은평구 구산동 355-98,동익파크2동(355-98),37.6152983553649,126.906872306258
서울특별시 양천구 신월동 1060,동원데자뷰,37.5436039696813,126.828060242315
서울특별시 동대문구 휘경동 281-24,현대캐슬,37.5882907509697,127.058596445132
서울특별시 송파구 송파동 58-1,대우레이크월드,37.5115694532177,127.10815851038
서울특별시 광진구 군자동 346-18,홍익봄마을(101동),37.5498934921016,127.070141901596
서울특별시 서초구 서초동 1523-17,동아빌리지,37.486178591445,127.008240452962
서울특별시 노원구 상계동 95-274,공감대,37.664355997708,127.077514238687
서울특별시 영등포구 여의도동 21-2,공작,37.5270507395108,126.929608657829
서울특별시 노원구 상계동 666,상계주공10(고층),37.6616521070339,127.05612466376
서울특별시 강동구 성내동 448-14,하나플러스,37.5240701765271,127.130023085021
서울특별시 성북구 동소문동6가 24,청기와,37.5924981502079,127.013070187712
서울특별시 노원구 월계동 923,초안1,37.6330124373899,127.044071739665
서울특별시 은평구 구산동 547,갈현1단지e-편한세상,37.6126178231164,126.906756046562
서울특별시 중랑구 신내동 479,중앙하이츠,37.6035495340772,127.098903547774
서울특별시 강동구 길동 445-1,강동역에스케이허브,37.5355802857957,127.134841810959
서울특별시 강서구 화곡동 914-3,일성스카이빌,37.5287943988332,126.845517395793
서울특별시 서초구 방배동 449-2,다솔,37.4775180611509,126.984316117195
서울특별시 강동구 둔촌동 603,프라자,37.5361372943578,127.148430512796
서울특별시 송파구 거여동 293,거여4단지,37.4895629768608,127.14325778872
서울특별시 강동구 암사동 497-6,한건브리앙,37.5512041234834,127.130124300905
서울특별시 중랑구 신내동 787,석탑,37.6035690241397,127.101207793509
서울특별시 중랑구 면목동 1499,용마동아,37.5784385345249,127.094611661002
서울특별시 동대문구 이문동 292-10,이문동웰츠타워,37.5984917221,127.061885756308
서울특별시 강동구 암사동 442,암사라인,37.554992303218,127.131159173617
서울특별시 서초구 서초동 1333,신동아아파트(1차),37.4902937940964,127.025215721794
서울특별시 영등포구 대림동 777-1,신동아,37.4974745690828,126.894316800064
서울특별시 송파구 잠실동 86,아시아선수촌아파트,37.5086743363441,127.074777283239
서울특별시 동대문구 용두동 779,신동아,37.5732856027865,127.031755527083
서울특별시 마포구 성산동 114-3,성일빌딩,37.5623662881206,126.914820012527
서울특별시 성동구 성수동1가 715,중앙하이츠빌,37.5475329781533,127.048398220756
서울특별시 동대문구 장안동 581,일성트루엘,37.5652028001255,127.065893363254
서울특별시 노원구 공릉동 576-11,세영아파트,37.6213308363459,127.073748635918
서울특별시 강남구 청담동 130,청담아이파크,37.5252558695976,127.055097277182
서울특별시 송파구 오금동 164,우창,37.4998697398532,127.136430596183
서울특별시 중랑구 상봉동 113-1,포시티,37.5953838194036,127.085453248744
서울특별시 양천구 목동 960,신한이모르젠,37.5490389881031,126.864475788474
서울특별시 마포구 신공덕동 172,펜트라우스,37.5440255735187,126.954094951539
서울특별시 강동구 고덕동 486,아남1,37.5579548375122,127.146294328922
서울특별시 서초구 반포동 612-31,아델스빌1,37.4969029522582,126.99371157205
서울특별시 구로구 구로동 1284,우성에비뉴,37.4823619480377,126.898290771371
서울특별시 강남구 신사동 551-5,하야트빌,37.5218294514897,127.023788769448
서울특별시 강남구 청담동 122-15,청담대우멤버스카운티11차,37.526112111843,127.049989339968
서울특별시 중구 신당동 852,청구e편한세상,37.5599601596254,127.015451019186
서울특별시 강북구 수유동 48-8,수유프리미어엠,37.6343459192368,127.022160886222
서울특별시 광진구 광장동 566,청구,37.5418216079179,127.097022369194
서울특별시 중랑구 면목동 581,대원칸타빌,37.5776001414221,127.089908440848
서울특별시 강남구 도곡동 952,대우디오빌,37.4864868587499,127.033537582361
서울특별시 양천구 신월동 1059,상진지오벨리,37.5397524410049,126.831540513604
서울특별시 은평구 진관동 155,은평뉴타운 제각말 푸르지오(5-2단지),37.6377914977696,126.93681895439
서울특별시 성북구 하월곡동 224,샹그레빌,37.5962119111888,127.041104102789
서울특별시 중랑구 묵동 378,한국,37.6148043977304,127.073528575483
서울특별시 강남구 역삼동 745-13,동원스위트뷰역삼,37.4969514046371,127.0372270238
서울특별시 금천구 시흥동 220-2,현대(220-2),37.4535832749644,126.913651489401
서울특별시 은평구 갈현동 542-1,현재트윈빌,37.6168688763487,126.908495832923
서울특별시 노원구 중계동 361-1,롯데우성아파트,37.6463693750751,127.072776926918
서울특별시 은평구 구산동 167-1,명남빌라트,37.6096763812993,126.90666277223
서울특별시 노원구 월계동 12,삼호4,37.6267862606127,127.065271513405
서울특별시 마포구 신공덕동 170,브라운스톤공덕,37.5418171558861,126.954618618641
서울특별시 강남구 도곡동 467-6,대림아크로빌,37.4881276085659,127.050686658826
서울특별시 동대문구 제기동 892-65,공성,37.580965220669,127.035869062302
서울특별시 양천구 신정동 312,목동신시가지9,37.5194246797911,126.864038205091
서울특별시 강서구 화곡동 1095,그랜드아이파크,37.5548351849155,126.85129237152
